[
  {
    "name": "Care",
    "description": "",
    "lat": -23.5594952,
    "long": -46.7216746,
    "styleUrl": "#icon-1899-880E4F",
    "imageUrl": "https://mymaps.usercontent.google.com/hostedimage/m/*/3AL_Y2X5QK6YqH7YILadNXP8jaFmUzrAwzrkdUq6T5VRBmtzi0EuhJPpwJDAHLk_4q6Mu-OMF-9UTuGRqQbqOowUMxjPIeYvh57isjoly_zb0NFGKtI56Ue9McfdhnNcTI_moDt4aN6qSQIktUMGU-r4aS8-DyIXWf1IZnlLh5raAEi1t02fRv2GiY__bMZW5uGbYyEu8hg9KJPyiBTx6fNeuhln3TCwUNQRzZKj1mNaP-eT4v8lItr_Lw5mdFkI?authuser=0&fife=s16383"
  },
  {
    "name": "Portão 12",
    "description": "",
    "lat": -23.5586539,
    "long": -46.7193627,
    "styleUrl": "#icon-1899-880E4F",
    "imageUrl": "https://mymaps.usercontent.google.com/hostedimage/m/*/3AL_Y2X6eFA5b7tPZ8DGV4f91IztgRZi-JHh1aBxGT0GSuUbifW7ZItuFuIrH791DnVyzHGBQGfiIItjKXVCl2f02GQDPTAZUEYpQm3vU2AuiD4JjM7_56lZOWhSET66Q1WlNvkvqSnM5CVW5omkTvzEFGn45IXMDZRJdi_GCUsNU2poS_Ogvoqw_kEYQqOg99sRsprMG9yUB_SHSUtVZqcjPzwhS6E6VpaxnQn6kBZx1n6f6KK0losWvQkcNmtc?authuser=0&fife=s16383"
  },
  {
    "name": "Portão 13",
    "description": "",
    "lat": -23.5588952,
    "long": -46.7194705,
    "styleUrl": "#icon-1899-880E4F",
    "imageUrl": "https://mymaps.usercontent.google.com/hostedimage/m/*/3AL_Y2X5jZ2tYVx56UUhnIg4ZKtqRmPOxJyUXL9nJJjV2PF17b5BCWGzP7rmKut0Mwipd6_ZETjdvqLeqaHDhF1S5VW92MQBuKz00EeB_Y3zxAaqd0IaHBgMbTD_HE5Wh6hqFsEJFZcIh3Sh9PB89b6x8x4wsQWxxL0dnstOMU4rOHLfRUCeXyUEH1KfWt7UHOCsrnC4HwOZLp31eBSLlNmK7DRA8_Yfy-z60fWp-f5azci5hO9y2Fqc4gssBr58?authuser=0&fife=s16383"
  },
  {
    "name": "Portão 14",
    "description": "",
    "lat": -23.5589974,
    "long": -46.7195117,
    "styleUrl": "#icon-1899-880E4F",
    "imageUrl": "https://mymaps.usercontent.google.com/hostedimage/m/*/3AL_Y2X4_vAu6TrKq7CklhNaUxNIgeb4nOoLk5HlflIdUqozUDOZe5_Fzihkw72NRoSFe4ZjJvnJH0RjyyLDI6SVIjB1pbIzSI0dnaLc2DMAjkQr1SdXjYcXOlCDzfkHDPI9ZTDM2uiVPmJYgo5N8aeUL1AhE4yGUFVb1vjYgH5KWalKBjuHV3rpYV4Q4_8mmvC0TAOXJe8qwAqTfIDTRsNcT1Mk0XVh3gsht06rjJntjz-lIKpYW5WGLIQNhF2Q?authuser=0&fife=s16383"
  },
  {
    "name": "Portão 15",
    "description": "",
    "lat": -23.5591282,
    "long": -46.7195916,
    "styleUrl": "#icon-1899-880E4F",
    "imageUrl": "https://mymaps.usercontent.google.com/hostedimage/m/*/3AL_Y2X5KSDF963ajWdmY5DAsLN4AEcerXhxswNZFH-x-3H-BDQvfIqgXxm99XGDQKV63prAARmQYDIOhsWhrGSvfIRyJnS-RwpvI-s_fOgtH7H_w8CtqNWPHqOaB9WMhJmAVKhYgv0kZqyKFaYkzgCxdQCiBsRJ15NFKfNT1NAmTv9LFJt56zI5VGmN_pd7lcj0ol8E28uQ9lF3CvoQLYmOAAo_pFT_RQXB6BQLUqq7JER60B7blvUQyxn4AehM?authuser=0&fife=s16383"
  },
  {
    "name": "Tampa de madeira - Portão 15",
    "description": "",
    "lat": -23.559178,
    "long": -46.7196755,
    "styleUrl": "#icon-1899-880E4F",
    "imageUrl": "https://mymaps.usercontent.google.com/hostedimage/m/*/3AL_Y2X72jU7d0cHY5lf_h-NTvSEgkuiOvUwWLq-JhbDJvR2bGFR9lYl97LYN6m27ef0dFH70ktXYhiMqVxQnsEt_2hndb1OfdXWGrtFptHLWbikzgnnAW1XG0YiaXdPDA0cGbf0CB0Cs78stD6HdzgfZ7ks3jHm7prpGSyvVXAuypv6PYTtTKQTQZIjrWL_0KtpVfA5yOdkZzWHMVcgwgdD-tdxBix-6OUROJepIggCVVoWI0a18IVKG7eergts?authuser=0&fife=s16383"
  },
  {
    "name": "Portão 16",
    "description": "",
    "lat": -23.5593251,
    "long": -46.7197117,
    "styleUrl": "#icon-1899-880E4F",
    "imageUrl": "https://mymaps.usercontent.google.com/hostedimage/m/*/3AL_Y2X7B_9X_SiXoelXuVnjZaQXFfe3fS7RfUwK2gJVippgO48MDH_fIiHjR0UH0NtDSyC46fyD3HdCke__PoFll-Aex6ptsJGnvslplP442AH_ttxqRnZZaCpwn-yr1ItDHFUauOp6fkofTieTJ8VPzcf_1vv7vT3wuFX31TMNyiLDLVyu9lCxlVe0meloBvhAwqb5sFWy1W_uXWBeeIot5VeydwqWEkKTeNYkuo6jD55rf3Xl1YFd1fwo3Fz0?authuser=0&fife=s16383"
  },
  {
    "name": "Portão 20",
    "description": "",
    "lat": -23.5605038,
    "long": -46.7199023,
    "styleUrl": "#icon-1899-880E4F",
    "imageUrl": "https://mymaps.usercontent.google.com/hostedimage/m/*/3AL_Y2X5Lywg1tHGyh1fs7ILtg-afZLDR8YcXnSrc2Fl6ed2Hf5S76wMX-aDodk6cqRAcQYG0NNfxWAYMwoZpJLfekMXczm8XuQQEEn4GlH0ilyC5NjTyPwagxfkEdWJDGRzELQOXYQ4RrFlMwqOcewwX6dM2EeDDasWXX1x62qdy_IaPq3NfXTM3G1jUKQ9d47B1tm6CZYn7HnaHj2Z_t0JwOpSUhCXWqajK_lDhWvkDf5lhYpxX6jxIImOGrVg?authuser=0&fife=s16383"
  },
  {
    "name": "Portão 17 - Orelhão ",
    "description": "",
    "lat": -23.559549,
    "long": -46.7198226,
    "styleUrl": "#icon-1899-880E4F",
    "imageUrl": "https://mymaps.usercontent.google.com/hostedimage/m/*/3AL_Y2X5KlgcWrFeoPlykYHpV_NAunBuZuULVnfU78HK0Ohg80uXDr6R9C9ec2QCqgNid2bSRDDZyVOQ4PeKMBfhAr6ARp9w9AMFrfexg_nWsaPJMWgp_mrforv01-8yGsg4s9gmtN13rrHJs0kWcnNlICpc4RXT9XogLmidDyKZby7hcipKqNtlAhtDJxGynDABrQ7U-RHWWSzhLkdaX-46rBq4kkaDEGXGzpFKjI6JTiOKoVWolzUHciWXFdgI?authuser=0&fife=s16383"
  },
  {
    "name": "Portão 18",
    "description": "",
    "lat": -23.5598764,
    "long": -46.7199033,
    "styleUrl": "#icon-1899-880E4F",
    "imageUrl": "https://mymaps.usercontent.google.com/hostedimage/m/*/3AL_Y2X4143Fd5YJWvbvYvtu6_rPtz3KT15dYR33O7xmzWigpXpTFX_9CO12xbWKjOB9UfPvJvVlRCJqPp_fCgY9weuf5xb1I_bFzlhK8JmocqweJ_kzxcfQM3cvLVBcQ-PWKy6Yab3hKQcPQ5CGgyMwa8jnBCNjoOIlIs8ixAMc1yV3aX88Vy5_uU9vhZ7Lz3NAxCktayHSVty10fjQpcCyJKzw1SonRXnQasCs-sCO3KcAp7I1blb5e2EDrRJk?authuser=0&fife=s16383"
  },
  {
    "name": "Jardim de Chuva - CEPE",
    "description": "",
    "lat": -23.5600868,
    "long": -46.7199399,
    "styleUrl": "#icon-1899-880E4F",
    "imageUrl": "https://mymaps.usercontent.google.com/hostedimage/m/*/3AL_Y2X5N72ChJxNnaw7JiAQ-kAHoY3TWgOL5N5XOrqQlLl32NMN7AX9H7yq05YwxKfQOxcPmcY5Wz1veibkS2MC0wYD1guUnlxSkmpTdJzCpRyMhNaGAzMgM5FC17bsArLobl4OlAgaA68k6eU1SyqNMCSK5BQA_IfRT1QTHKrRM9Bkizae0Q3KhrQeFKtl2abAh6gAY4b7_WTJZBOhriBsif1zOEIx6UNLDMe-_eeVIeXFxbSZeILy2CVBfol0?authuser=0&fife=s16383"
  },
  {
    "name": "Portão 19 - NURI",
    "description": "",
    "lat": -23.5603142,
    "long": -46.7199184,
    "styleUrl": "#icon-1899-880E4F",
    "imageUrl": "https://mymaps.usercontent.google.com/hostedimage/m/*/3AL_Y2X67idG8ZX4leLWdjvmKiahq4K-4dLlx3JbSuSZUqPvQ12LH6qJnKPgB9PBKYi4D4xv3Eq6hMzlZIGfSm0JMlwjRIBBDZ4IGZOSwFFdp_-LCqFqfwQt5WWrIRZeUYZ5AQrAc5U4d7fiOeRK4UDV77NrqpagI30cwGwiaRtYfUK0Wok8zvM-S-Y0QL25RWFj6i2fun1QjdHYN1aig8MomFEjKJYvVidhmQcvOUZHgDhVf8KJGbOaEncI5660?authuser=0&fife=s16383"
  },
  {
    "name": "Portão 21",
    "description": "",
    "lat": -23.5607479,
    "long": -46.7197872,
    "styleUrl": "#icon-1899-880E4F",
    "imageUrl": "https://mymaps.usercontent.google.com/hostedimage/m/*/3AL_Y2X51hmpWr0u70hotQ_5KkOoUFbI2l0UNOIb5oUJ9VOGfKAELcHU2FBVRToA224U-7740xWPSWDFXQXMOBlwrtKIZ1mdndM91gHIYsxvxo_OK1G-CeSGgQb-YTZyx7V3dp3cLWfSDLX0iN0qVLKu8_Nt6w2wwpt1dOMxahyqo1yLuXRLCmL22e1OiL9c25XQk_0KeOSA9P__DFL-EJ-5dUmHbmfYEqsfga-mRkX0yzGt7J79A_oiEo5YzBPw?authuser=0&fife=s16383"
  },
  {
    "name": "P-37 - CEPE",
    "description": "",
    "lat": -23.5617272,
    "long": -46.7189896,
    "styleUrl": "#icon-1899-880E4F",
    "imageUrl": "https://mymaps.usercontent.google.com/hostedimage/m/*/3AL_Y2X7MAzCPVwzjLFj3e8JovGGK-Z_rq43OtZDgHbAUFWQ4JhyrenyrvqYxCTXtVwUEiIuJr9p4Xz1aPq8Mntqj600UdDczJ-70UqKxzQbUA2LZ6isoVDX_TWt1KeYM0N8thHTiSnnTWi7SmIEGdQC8D8uSY-6ml_7uYgwdItlykRUQXBA47ZiZWKl7h9k7tNoIsFqDThJPVn7qI97KbHzKL6WRn8T55ax6CxnA0YD06z-kV1wtu8d6YcngrZE?authuser=0&fife=s16383"
  },
  {
    "name": "Totem CEPE",
    "description": "",
    "lat": -23.5619159,
    "long": -46.7183291,
    "styleUrl": "#icon-1899-880E4F",
    "imageUrl": "https://mymaps.usercontent.google.com/hostedimage/m/*/3AL_Y2X4Ejx2uKAQb3zI82qNPWQy9RRTHzEYy8udz8KzPSE_Xw5VtZ_3m3J1FE8GEteKLsXWsc5K6T5UX8NsTuBEZo-Xfe0F5WL6QWsSj4EtI-N6V2LNxNxLZJ1-RAij2okqPH5F-0UYJ0k1IAMA_gtvWf1e53isxv5wCGtoZD25LHpZIjwqm9Zx6PCJZXmdviq66FzDDokG0lhJslpe8Tlmx8A-dpJpheaiZAUp62BAMcIHHcKquye-v5f5RdIY?authuser=0&fife=s16383"
  },
  {
    "name": "Portão 22",
    "description": "",
    "lat": -23.5616056,
    "long": -46.718026,
    "styleUrl": "#icon-1899-880E4F",
    "imageUrl": "https://mymaps.usercontent.google.com/hostedimage/m/*/3AL_Y2X7io5eBRjE6_1BIvqbNTpytS66iLrx2Y5uEUIqDa7_X_Kqx6MRO1xyidZu2IMcYOL9oa6L1LvTMKA2L7e2LIyY2wfxN-G5azvnfnGdsL0axxPTM9_x9jFECeZ6fu2_UqHYxnKgrsMHsWMi11HdCiodpyju84CLRW37m6UxJdNjlj9Sh2r3FnLH72lFvrk2mwA1eJ5jiT5AFWsgPtp6sPSXaFvVYzzlLPV9EvcCD9SRhlWVsIG7QYZ0_vQc?authuser=0&fife=s16383"
  },
  {
    "name": "Cadeira de Juiz - CEPE",
    "description": "",
    "lat": -23.5616124,
    "long": -46.7178156,
    "styleUrl": "#icon-1899-880E4F",
    "imageUrl": "https://mymaps.usercontent.google.com/hostedimage/m/*/3AL_Y2X7VRmKeUNhHATodfJxkJS0cftjCDYoG6VFtj6xGBAFK475mY9hAkXmet83AOoHDH8Pk3iUZqNBNF9iYaUOkxKJ6znnwEZMeCgluArsTuEIh4sECLoofghywEyLUHhuZNumcZD2SOLRdE-j37rkDAIzQkx33fOs0g5CxZ7GaWKzZhMifmMAUHrmJ_FW7DFrtABbu5SToGRtJE0ST9nnQ-ogSH8GOHl2dVFbgs0hL4i6AH3jVytBJighC6Lo?authuser=0&fife=s16383"
  },
  {
    "name": "Bike Itaú - CEPE",
    "description": "",
    "lat": -23.56164,
    "long": -46.717454,
    "styleUrl": "#icon-1899-880E4F",
    "imageUrl": "https://mymaps.usercontent.google.com/hostedimage/m/*/3AL_Y2X6uYBSLyeUuOmjdE8URj_jVjM1EsEAyNMvSOnjb4Lx3EKH2YV_ATWZfcfA729U1CjeN3DAIEN2eefpVzye6gUMfPwXyCBvFk1ePmtuxSjNcONo-rP-Dd3NkNmdOYeLDqqoLMKaoGLoxtz-NDZJ6QjRlXnwLOdivaZNW3aHY3H4b2D8gLqnzHwhRuKZYX4RndZJPAccXvVawCf7P19i8HXnUkVnDolrFe7OS0jckuJqiJWG0l8Chzq95IMU?authuser=0&fife=s16383"
  },
  {
    "name": "Portão 2",
    "description": "",
    "lat": -23.5614679,
    "long": -46.7171885,
    "styleUrl": "#icon-1899-880E4F",
    "imageUrl": "https://mymaps.usercontent.google.com/hostedimage/m/*/3AL_Y2X54YczRa9Fto1MOTQF4A5BKhHxXoS5jXq7IXBIXLVYiDfaOuwqLPlJio8726PTeYe7JJnhiJXz5n9H9hbQYwOQyS-XF5VCTSB0Y0X7h2L_G_Mbt7Kyl1CEbJVpMQK4xOzjhr4GX4mWXx-WvM7Fb1KPAWwMNPtVW4zAN20r-O_kCG--xjlj93DbFNFLi2hAUOIxkGD25Ed4WKWcFhC_M-kqvWbW9bSAkyKwO4u8CStOGCiJ5FG04qtIX93I?authuser=0&fife=s16383"
  },
  {
    "name": "Portão 1",
    "description": "",
    "lat": -23.56149,
    "long": -46.7173574,
    "styleUrl": "#icon-1899-880E4F",
    "imageUrl": "https://mymaps.usercontent.google.com/hostedimage/m/*/3AL_Y2X403x_2sQCfcHpnb9AD1laUe_xwPPLj6H1JZBmAjztnhr1oa6WI1PV3vdU_7m068vp46SMsbuw2-auFGKWwVvr6CSDZaE4ybM0EFtMq_iB6FJV-1ezpVYlJtuZcIkV8zIwD0M5Xwd4XgDeNKqgbz3hhkvCa1Aisaf6YtDDTvp-hOjX0D61LHRm5rP0zy75AfyK28pCfHnim-hhB0qlbKN9vMmpldyycERsjxq31MnHzIE4ta-H3ndac2y0?authuser=0&fife=s16383"
  },
  {
    "name": "Portão 11 ",
    "description": "",
    "lat": -23.5582221,
    "long": -46.7178048,
    "styleUrl": "#icon-1899-880E4F",
    "imageUrl": "https://mymaps.usercontent.google.com/hostedimage/m/*/3AL_Y2X63x0DGfEG-v75O92RfDLDzvv997ZAkqiptX68G3O860U4_IpoHvgTQ18KJKft1hdumwe2WHhb1-5furn4YL4SWkf8K_DIdN8XCz6s07F_eEVcIO1jAlUxaJtFzx7nUCfDIp6n-XVIwgr_b8fskVrrjMe8PTSNU_Y3v3gTnUmUti64zo71OFguC0-ax6efMRIP4U60zhk7roNdWRtXPw8-TittNRvw4kdAtAR5NtMqDTX_-_YljqzFyAM4?authuser=0&fife=s16383"
  },
  {
    "name": "Portao sem numero",
    "description": "Sem placa",
    "lat": -23.5588721,
    "long": -46.7164731,
    "styleUrl": "#icon-1899-880E4F",
    "imageUrl": "https://mymaps.usercontent.google.com/hostedimage/m/*/3AL_Y2X7A3Qd9wkNzrxw_lxCvwijhHfXd90lDt9KpmxbVKDHUiSRZrmaICPXUvjD87TxYA87mQfeH2HLhy3Ey8yRXy9oa620LnndogRkCWjX9pHdlA0KebMKROCraUrX78cLmbew8PdGKqy9fp6tEQWA_Oa2LcnGgBb4yZ9LQTUBr4_4WINsUpS2I4HX_rQJCW9zM6kTUszRvlx8aqBTjVKoCJ7H6RuNMzrWiOWY874T_y5rPdEOVUPzmUUYjCbA?authuser=0&fife=s16383"
  },
  {
    "name": "Portão 10",
    "description": "",
    "lat": -23.5592125,
    "long": -46.7157206,
    "styleUrl": "#icon-1899-880E4F",
    "imageUrl": "https://mymaps.usercontent.google.com/hostedimage/m/*/3AL_Y2X5I0EFslu-vwbfyrH4zfCym94PaDE1YjZqZVv3GeMzP-sjbM7uZ0ZnVnQXXPJKYoay8PZVfEYn5BS4U7NLBH5k4X1vWWkMVxOCVuCO4k_EkYs0MAvl6LrSiz86aF2Gvx_XAcWm-wfSHAwqQ55Qydgkp4zmaZNtyzmiyemS-dYpVdTqaKEWv046f9G2CQvNzuy72h9IvYtY4SElCruFQw6CceXXl46UmjxLHr7JzYmPmiEbbURjDaHYrfmM?authuser=0&fife=s16383"
  },
  {
    "name": "Portão 9",
    "description": "",
    "lat": -23.559574,
    "long": -46.7150311,
    "styleUrl": "#icon-1899-880E4F",
    "imageUrl": "https://mymaps.usercontent.google.com/hostedimage/m/*/3AL_Y2X4R714_oLKVi3i6u_SicJsOvxL4prcs5GJ-n-BdofpktH0KcobCWMjFZEeOAgrKIMWvGZqoA9PCxxAbblP-71gM2x1TMjxA76wUP7HnMpJ6dFCLhH9q-TenIyZ7o8Ls7p1_ILPPmlvHB3sGC46zCfZlkJ7rZtExSGCUw_eyN4u72miCl2SZMZZqP7hKVb1MCoPeo7XwwOdnAad4WV9VpZ3ptJ1tOoU9Qs1elbTP-hVRwDY34GiS1kUDt40?authuser=0&fife=s16383"
  },
  {
    "name": "Portão 8",
    "description": "",
    "lat": -23.5597501,
    "long": -46.7147021,
    "styleUrl": "#icon-1899-880E4F",
    "imageUrl": "https://mymaps.usercontent.google.com/hostedimage/m/*/3AL_Y2X6CVHlD1yRJ-xtKiPRHaiEP0QZ2BO4Jz23b4xFlyj4UfTbAJzhuvR7SPhtYR6PMqiyzwPPCOQTapdgKChoEawwbKbk51iF1d1uHYTmn3WTsPvySNOsn6cSSiwyfpsFSZzvit_-v0EKVgydbGH0NMj_vrBXX6XAsgIE-MKQIR4G2q5DmYTmFyIABxzsNp3caJ3K6HgrHYFZvQXYHwrsTk_LysQf2agQD2pPDABxfnTrhGYYyab77Fo_W2hg?authuser=0&fife=s16383"
  },
  {
    "name": "Portão 7",
    "description": "",
    "lat": -23.5600602,
    "long": -46.7140836,
    "styleUrl": "#icon-1899-880E4F",
    "imageUrl": "https://mymaps.usercontent.google.com/hostedimage/m/*/3AL_Y2X7eRG0NL6TpyQgIephyI6-OtEhsZ8EGFRu-5vQ8WziIU311NBD_0v-Yj_y63dDf0FHOUaHseNfnpVa-Dhle6XtVwi8rYhKtxkQDZHpcze5YI4FOPxgec0C_zW5sp_2eTJ6LApd_Hdiya_7wm82Re6bePLm3LxlSyFlD2dFXtJasqJIJQ-3xpuYIx-DgHoYxGsIdqcl3VzS0gW1oeLFFtQeFBM0dr4hkaJYNRU7LP9Mslf4YqE9vOB3KooM?authuser=0&fife=s16383"
  },
  {
    "name": "Portão 6",
    "description": "",
    "lat": -23.5601009,
    "long": -46.7139822,
    "styleUrl": "#icon-1899-880E4F",
    "imageUrl": "https://mymaps.usercontent.google.com/hostedimage/m/*/3AL_Y2X7TXUtvu2WSPHoUxPiLIe-A72AIbcQG8MdpUcjDimTvUG85sSaR47V7euI1TidThBK0L4KMjkb0GXi-0x7xoGRgLqjLHPhyAKEd-H2K8Vbnbb7TMysKiX_erfBktsSzzysHqS2bbveJ4sypCMMGGsoyD_bsT1UkhBkg9AqgSSgHFwzUpTdFtCdY43mu5W7z2Tla3Gf5JgHEU5z0DfHGbkopnFOYkZ4Irdjn8Am3LiweD_2MUiEsUSQKbhI?authuser=0&fife=s16383"
  },
  {
    "name": "Edifício André Dreyfus",
    "description": "",
    "lat": -23.5660124,
    "long": -46.7302386,
    "styleUrl": "#icon-1899-0288D1",
    "imageUrl": "https://mymaps.usercontent.google.com/hostedimage/m/*/3AL_Y2X7CqhhbD-KNkyC9rXOYrpiCFg9imWJR7PGYCudXSXOOoPSjvCSQPnjsfaVLBgayPAPN0qMgTGpKECPouBleH2m8RSipCgHzlrUwvWaGH97i0x_ZO4tepbRoseqITZ7qLaAc-HD4YbyJ3Az1Ke9s2UjIcpHlu-q6BbmrtGOHhId3ZYcTVJRdyS8YG8Sii_WAnEgdQ8KwocX0zOvXWe3QTiDb8YXN_aeQa0xQynP7WVheu5vzUJ_7G5gcc74?authuser=0&fife=s16383"
  },
  {
    "name": "Barco da Bio - Utricularia",
    "description": "",
    "lat": -23.5630372,
    "long": -46.7299921,
    "styleUrl": "#icon-1899-0288D1",
    "imageUrl": "https://mymaps.usercontent.google.com/hostedimage/m/*/3AL_Y2X5WmWrw_nlLt6DguLvNEhniDhBostgiBQuKeOBy47PHZByvmTgZeF27yyM6xru98Jv1mJFD7K1cjBVUnB1iukFjcrRFqAIiozVUNY4-cufu4IoCpTe6tugQfHYuVwQsqLXrM5Fp9qiMiwlk-BR1tviyjapQvWidJgp_6kXbGNC8PyTCufztv47FjPijGPLmylHYRAVpe8LKwraHR5fh6brymvgFi8E6cRfM0idQZJXvhhzuTPUYL64aGy4?authuser=0&fife=s16383"
  },
  {
    "name": "Veículos - BIO",
    "description": "",
    "lat": -23.5631527,
    "long": -46.7297937,
    "styleUrl": "#icon-1899-0288D1",
    "imageUrl": "https://mymaps.usercontent.google.com/hostedimage/m/*/3AL_Y2X4nE2qapEAI3UnX4BXo2HqCxbWG7ys34BqZriRUX3RKo-JuYDG1-VDV_iOzVmoKyVvxfDsKz2P5rakYj_ZShc9QZ6Tcoy9cvU4iIWmVNOCHp-E6-XCdrY1K3PRbEbQrgiibezqyx5HKzSqcrWb-AfzGIfBNksRE0NaFwzUfbzB7YfZaVN4og9aAEzow5qZaezRAe9uBq_EpQ7pKBemXsHpPtexoOfrXmPsa-mCW_bH2Z_EjCeSrs5b8sdk?authuser=0&fife=s16383"
  },
  {
    "name": "Adm antiga - BIO",
    "description": "",
    "lat": -23.5633051,
    "long": -46.7298875,
    "styleUrl": "#icon-1899-0288D1",
    "imageUrl": "https://mymaps.usercontent.google.com/hostedimage/m/*/3AL_Y2X6sRrtD7xiPT093ZHiOkLwLEdG6dppzslb3MWsGBvNh-X0_7MNAbQEkn10qV6kxUzwu5s3SHPqJnfETlxB0ZUYXGIaIq9PCE8gnRasf-WLT0rUvB4JjbyDxQDX9AjjVI-S5Z5K00nYb836tyFmD8iE3sKSW4YIzRWVWQHhLc2GU4_V7BpGVwza03uu_1cF9bb-FAe78VYRLkvkppUcwtAxXfUKTEXXddS0dUzs4snq14UDtT9aaRb_O9KU?authuser=0&fife=s16383"
  },
  {
    "name": "Pedra Fundamental - BIO",
    "description": "",
    "lat": -23.5635002,
    "long": -46.7299132,
    "styleUrl": "#icon-1899-0288D1",
    "imageUrl": "https://mymaps.usercontent.google.com/hostedimage/m/*/3AL_Y2X5WyoDQ0QCc64tBewyjmujXY-GIPIFPMJhu68nPS95df0SAUzWWoPwgoap_1nuEXN-3XBH8kwkfL-wT58SmsZziYAwVbXrmuWZH6xQlF47xQjjlRGO_QqjPIRBRRywbllRLJx4oe0swnZxpuIAGbJ6OMWkRDxLAO9o7fAVHKFFm-xltRrgZhWJGldI3uK0MDIqPLcEH_qSjFGyZ3bkqjPJL1wScMBIvOhk42GhAT_b2T2AOym7EbOC0rAg?authuser=0&fife=s16383"
  },
  {
    "name": "Xadre fundamental - BIO",
    "description": "",
    "lat": -23.5635204,
    "long": -46.7299143,
    "styleUrl": "#icon-1899-0288D1",
    "imageUrl": "https://mymaps.usercontent.google.com/hostedimage/m/*/3AL_Y2X5QKysJMYIarFPTprxZqjDkPBnjS-P6x6_bi8B5UC8ukvUoulE2i84-kORsw18S_6BCJzb4t9p32w7_X0E0yuQisdSTXKKjhouthq1kGRGbEYf7zsuiWfMXVTu6whpqIBfzOb6U6tS2W3RWYDGMVOHuFlYE7cs4EharAWwUpeGZerFC40U8lSrRzOCQxcBRGfu4DOPoATqnjclJfX17LkDLR95q9rOTkTmf-kkf4V-dVKKiUxflIDqpNns?authuser=0&fife=s16383"
  },
  {
    "name": "Camélia quebrada - BIO",
    "description": "",
    "lat": -23.5634968,
    "long": -46.7299824,
    "styleUrl": "#icon-1899-0288D1",
    "imageUrl": "https://mymaps.usercontent.google.com/hostedimage/m/*/3AL_Y2X4SLjs3UlKlL9atggEGPUt5Bca4zFvxD_XGeUg750WclIVwsmahr7CM2HgNLZsnltHeAsNgGWQWjfMQ_gGgwU5RAe_76B3ZKUe0Nq3b4PJ3q3lEQOi0cYjvFkPWX_9SCl3JOv9hMN1SYVCPGb1d1BhAn4HTaJYizP3VYg4Z1oOcmXmjpPNEgVkdA1acmlV9fbxql63BKyZlSOLDpj8eB_ykNN3ChR-sEs9L0OLnarvIt_71nekkF332okA?authuser=0&fife=s16383"
  },
  {
    "name": "Contêiner Lixo - Bio",
    "description": "",
    "lat": -23.5630038,
    "long": -46.7299387,
    "styleUrl": "#icon-1899-0288D1",
    "imageUrl": "https://mymaps.usercontent.google.com/hostedimage/m/*/3AL_Y2X5gjiPo1XCpEA8vUwe1MFGSStlH5gI4EtptUFsjV1HYs7S8ZMbuF27ez6eSuIhSkKE1faYamnE7XLcGXHynLJqsQzwu3P2ylnUrr-PWaxdzj0iCooHqFf9DctRbKtV3YlHPHu0TbQdiL5-w2z6oEsbuIRkZmy8j7sytfj_30QHxQX6KWW7e2Z4uKOErxkngsiKZLiVlVUApcZi0ad5h8CODE-FDMmdDV28CNgtuIjJPlnXT52l4c7c9ydA?authuser=0&fife=s16383"
  },
  {
    "name": "Point 37",
    "description": "",
    "lat": -23.5631139,
    "long": -46.7299811,
    "styleUrl": "#icon-1899-0288D1-nodesc",
    "imageUrl": null
  },
  {
    "name": "Mantenha a porta fechada",
    "description": "",
    "lat": -23.5631367,
    "long": -46.7299059,
    "styleUrl": "#icon-1899-0288D1",
    "imageUrl": "https://mymaps.usercontent.google.com/hostedimage/m/*/3AL_Y2X4133MxTCeZQ3lM5Rn_DlRt25ZmP2somjIjTpDZ2w64CZvm5kpVQQpy_lLHETAOWnaFTnAWlTexMFJ_82d-WPTj6En9CrJR4rYH8KjmODH780tSLlXjMBj98YmEVh89lJxy1ymiq3nzuG39vLlNkK2YUD-EJjwBtP-FzSs-6Xgi9MBadwjB597qfEdFFp7S9YzaMsM6qLC-9r-LcZEIL8UU7wCmyiipZlv8vgwsNQEJ7K8nt5J-Q_uOszI?authuser=0&fife=s16383"
  },
  {
    "name": "Caixa d'água e portão vermelho",
    "description": "",
    "lat": -23.5634255,
    "long": -46.7295219,
    "styleUrl": "#icon-1899-0288D1",
    "imageUrl": "https://mymaps.usercontent.google.com/hostedimage/m/*/3AL_Y2X4RTeMGwqTRt1gALOiZ6A3wUcrH2yGrEp5guqecfQ2H4ccMEcC3QFtgTr4OJPipb81xlQ3Q3CI_GrqXPYrrmXrVpqE5Ju7lK2B-37VdptmGphfHxYDDC0wFhG0q884Q0byOcivUWYEBwuO0HFNYd2SX_Jc2mbDEHytKjMa8jk0fr61apN4Dz4EWjryj4K6hpb23PLpYqVTd7CFfMGaQyn3iGv1JxvKx-_dKeNQzXTvwYrTrKXYctWEcPko?authuser=0&fife=s16383"
  },
  {
    "name": "Lateral Adm Bio - Sr Carteiro",
    "description": "",
    "lat": -23.5634729,
    "long": -46.7298852,
    "styleUrl": "#icon-1899-0288D1",
    "imageUrl": "https://mymaps.usercontent.google.com/hostedimage/m/*/3AL_Y2X5z6jQXKhLogJd_5B9RO0QqkXC40eOSV_CeXDETrR-ng_BSiZZswOuDTIYmPouoLPqFYmcWku_RWMdzrgtEwoHDmEAZpCZqiwRE0-JLwuZHyqwlVN4wjA_aPBqm1LFhMbI48s6zCiOL-ruMo5BCRenQ_wqXLPrsmqTepD_uX1G79rtP_CjCqw1L5gJDCnIrrece8UudbFxTNIndJn0DyMtXF5k4pIn4zuCbezQ9UcygiC2yOkkg-Bxo-LM?authuser=0&fife=s16383"
  },
  {
    "name": "Proibido prosseguir com motocicleta",
    "description": "",
    "lat": -23.563362,
    "long": -46.7297624,
    "styleUrl": "#icon-1899-0288D1",
    "imageUrl": "https://mymaps.usercontent.google.com/hostedimage/m/*/3AL_Y2X4erFW572DScRp0CVkb5-9V7ueV6IAUNEjpH01XTSWcpJLt5PI4FRLC6_kUoTxRo-juA6vTCdow95P5AYCyCsusiIMF-mu-1HZp6dyapgbJAGEQfvH7MllPN8mzR4hZu31jeTRGMr3PctKFWu3x2gkAF4YCxBz3f9tpgd-QPFy0N4zW9VErNBNky4YAJk88hwtGzs-uU-HFze4jmb1AvqerkWetYJWMrd6R91D0UGjHkV6bBOzQjpAVy30?authuser=0&fife=s16383"
  },
  {
    "name": "Cigarros - Bio",
    "description": "",
    "lat": -23.5635493,
    "long": -46.7299937,
    "styleUrl": "#icon-1899-0288D1",
    "imageUrl": "https://mymaps.usercontent.google.com/hostedimage/m/*/3AL_Y2X6rXcFYRrjN3OOa_C401yMfRe5WOLpJQywDmjkfWWG4_wY_d-XFRnFwiYiwHNoYG-ixKv5RFsJ8-q9QfGw9i3iLcktWynckYySWKSXYvvlYCZJhYN2oreqFNfV7bzM-y0cK1NPmPDy2Ws21DwiRJfa_pVw1ItLFKsGwwQpjpfH5krResV-JC_Av69LZljg_rVbR-meEa1al3Rt4Wd9igrC_Hkd5f8kRGFy1JBQUpuWXvGz1sqxtXs4G_ak?authuser=0&fife=s16383"
  },
  {
    "name": "Pinheiro ADM - BIO",
    "description": "",
    "lat": -23.5635354,
    "long": -46.7298769,
    "styleUrl": "#icon-1899-0288D1",
    "imageUrl": "https://mymaps.usercontent.google.com/hostedimage/m/*/3AL_Y2X5BABrB0_f7VxumbF2hP99pNVpXvEstwYch9zI4wWy3t9oQLw3FKFP9RBZQd7QqMDIOa__v4Ycggffci_CGuSLMh-exmACZfJGHXeIbLtka2kSXZ94rVFCQk13K_V-0aTYiivZLiCWHzNdRy4rk8vzmAXT8Wh6FDhU48UP-879hAH1-1dm4PiEtk8QqsyysAaZGRirQiTf0klVmc3k2E7v0o7pGiNQgbgRkhE6eOkLv_pUTvM-i6mX4a0k?authuser=0&fife=s16383"
  },
  {
    "name": "Espada de São Jorge - Escada bio",
    "description": "",
    "lat": -23.5636094,
    "long": -46.7300445,
    "styleUrl": "#icon-1899-0288D1",
    "imageUrl": "https://mymaps.usercontent.google.com/hostedimage/m/*/3AL_Y2X4_oX6osmsQBMP8xtHhO_f1RKGdQcbg8DPWdhG1Y7hVkV1pPZqKXHFQrg_HGgqLhW6gucXeECYP3QsgMmdfGP77M7njFj65Tdl1sSkSDUven2ZFIVPzHGcNgPJdHCpwK-3ub3HC3zVRoYfChTp3YaTqATrNzbLHn9LpQajDOoYpOjYZ5ytE9j7_yHIqD2FKrVNG6uU-TGvO8XIkFpKOREB3eX43ynazcPYSdPWB_R2gCm6d_0UAyJqPTg0?authuser=0&fife=s16383"
  },
  {
    "name": "Porta do céu - BIO",
    "description": "",
    "lat": -23.5636171,
    "long": -46.7299742,
    "styleUrl": "#icon-1899-0288D1",
    "imageUrl": "https://mymaps.usercontent.google.com/hostedimage/m/*/3AL_Y2X6A0hVkpExY63tcegeqGj2dG8C350Tru_ICPAO1hq3U5ZUsQYWzrWvjYgCtaNYwPs58j8J6iGNai5mGF7bOxH5nPME8EBKwZKp57nc5DM1fevPnN01tFQY422CJC-4bPx6IA_Id9o6gm7h8LA7nWEXCmfV_gJ4SmdqBnw9hg_VJIwgA3YHlDTSkohsOK8HF6hO1BOMzf7UTglDb9jHth5Q4VehAKKJrXzFfMzs3S2yiyGEA21jWBxVDKro?authuser=0&fife=s16383"
  },
  {
    "name": "Lixo e Sangue/Vermelho Adm Nova Bio",
    "description": "",
    "lat": -23.5637181,
    "long": -46.7299079,
    "styleUrl": "#icon-1899-0288D1",
    "imageUrl": "https://mymaps.usercontent.google.com/hostedimage/m/*/3AL_Y2X4B11Ubf22pwegPiz8wqRaGqPVriXEzuN3kGLrESelMO2V1I17KBPaO-LHT3neu73lIXnYc0Nf4aKEjFbbFTlSji0xhbiklusFAaqcoim4ZO5kk665aqjwK248rHyVVHdmH78nVrtMsLje6YrwT_dZVJxXynETxAElXE1NzgNJZ5fLYV6Lc1-rAciS1tS1axOpFvgQdZoRuap9CaCzxxz4eviU-kLL_iiiZw67tIN1SZItdu4Y2bWHzDp0?authuser=0&fife=s16383"
  },
  {
    "name": "Banco Bio",
    "description": "",
    "lat": -23.563592,
    "long": -46.7300151,
    "styleUrl": "#icon-1899-0288D1",
    "imageUrl": "https://mymaps.usercontent.google.com/hostedimage/m/*/3AL_Y2X4ATDGp7pD7ICS3EAkIC7a1KjPc9FJcR-RWmgyCHNvqpRNXXMc4aAeIDqLwmyLE8ONbJnyKMlVguqOmdMrkTTIH9zHSo5PYU2ErrNtCigTqWRgGeI8-mDf5idu3q4HT0opauYNKX2VtDp31TGBdH4_tekCkJvUZkiAgTm7oUrcqaibP5l6bytglsQYqpF8zZGbrgwRfsYN21P7viNcrpmJA9X8XHNpuFC5iaKSqk-k9i9a-UwzgsvNqESY?authuser=0&fife=s16383"
  },
  {
    "name": "Cinzeiro - Bio",
    "description": "",
    "lat": -23.5635297,
    "long": -46.7299519,
    "styleUrl": "#icon-1899-0288D1",
    "imageUrl": "https://mymaps.usercontent.google.com/hostedimage/m/*/3AL_Y2X4vwSXCoWHiRsmQY1qpgk68zHg0ciKdbC7XXidOzf-cVPo-SL_iqIHvPo8skwHuxlATkGcw3zgQuCb2Oxp-iExyAwyvjIiXfJ7HJa8SPO_0mB4QXgIJvHY1SXqPlMvyKVqcVAiSSfq26UKZSreJWR2gsai4m34mz9dhIzVVJ3GGFUEpn8ccJ1LurDwIOARKnXux9PKTVwIm7Ae-umN8yhXnh39lsxOjtZI3llAB5UshCHV0YoAixM0qBQY?authuser=0&fife=s16383"
  },
  {
    "name": "Ar condicionado Bio Embaixo da Escada",
    "description": "",
    "lat": -23.5635534,
    "long": -46.7299976,
    "styleUrl": "#icon-1899-0288D1",
    "imageUrl": "https://mymaps.usercontent.google.com/hostedimage/m/*/3AL_Y2X6lRUtB2hDN6Mr7WEXaqqfxHdnodI1k-K0zvpNMJLvOfctZ1yHv4bRMcIPCCoMWwmsed3btHA_NeKj-84G_HVQBActuvAslnHrVeDmupdD8kd1HIosMRMiv9gMTNcPzgdBd6kRPSwJlj_VEc03FyXk5MJSyh7IdfR8HY4UrN73iWgQVCGkBoHlyksAFJwUu6LS__rieD0du2YQyspDUs9ujaKgfpfX1u2IraRGY3kAOdPbxwQblkxPtg5I?authuser=0&fife=s16383"
  },
  {
    "name": "Escadaria Adm - BIO",
    "description": "",
    "lat": -23.5635894,
    "long": -46.7299954,
    "styleUrl": "#icon-1899-0288D1",
    "imageUrl": "https://mymaps.usercontent.google.com/hostedimage/m/*/3AL_Y2X7aNEl6kaB1NG2jS0oF6DhHhju_9ThPgwgakFn2neIMNuvT4431lOcaARTrn2gRJiAgy5vWbz6GgzmE0U1T6RSpeXAtcudhvCB9iEC4D2g0svYXYLfOya9EppVKw5E7HEQ_-u8anmKOHhkdMGqtm2hwxufEwv3s78iG1aU9a7XWqG0HCbAclvwazoVkTk3XvoabTfG2dUzzHMLUE8QXIeWa_4CSnHelWmYNsIHai4AfaHNMfMH-PyPMXgk?authuser=0&fife=s16383"
  },
  {
    "name": "Banco Velho IB",
    "description": "",
    "lat": -23.5635557,
    "long": -46.7295556,
    "styleUrl": "#icon-1899-0288D1",
    "imageUrl": "https://mymaps.usercontent.google.com/hostedimage/m/*/3AL_Y2X7orhblPZU2IbAZ5KRRSJmT6jjL0QMrGQ5AeLvTFb2V3s6Xug-SfA3Id5WVmMyyTiMaSbU1eVhCR5lCZAekRScW7r85kigzoqoakg9fDvU8vUD0qiYUBcE6nxW-2My65DDe1xoKklo3GtNVp28m1UoR3cM4AO8opcsrFuDDWHpoxCxDMuZPT9CwyZ2XSimPy8ND6Yd7wfEHkCfoJYmXm6u06e7hgY6qAgBGZlLel4gSTUbpf_4taRzyPW0?authuser=0&fife=s16383"
  },
  {
    "name": "Tanque - Bio",
    "description": "",
    "lat": -23.563531,
    "long": -46.7295487,
    "styleUrl": "#icon-1899-0288D1",
    "imageUrl": "https://mymaps.usercontent.google.com/hostedimage/m/*/3AL_Y2X7WCJc7EImxpR7bMW3DK-5yotbr9GsUEhi-HecTfF_8MG00N4p7xfxe_YvnOyrIgPUPHzThOwyPsJ1uvjG5oXHzqsKgIjJ6Zd5LMd5fT-RQEnJkBMheAyYfiHCneNmq09QbYD8PdyMqPy2c67DcrHB6rbQ_93-aa0jXP_wnYnAosTkkp1WtTUIdGEL2dBs8rTcTUjXNtl3mKdighcCNpqEAOiaH7tfXk4MizeoBqxZJRS_FUwHwFBaT6ww?authuser=0&fife=s16383"
  },
  {
    "name": "São Remo na Bio",
    "description": "",
    "lat": -23.5631268,
    "long": -46.7301778,
    "styleUrl": "#icon-1899-0288D1",
    "imageUrl": "https://mymaps.usercontent.google.com/hostedimage/m/*/3AL_Y2X74jc3-F7p4ok89JAhaKj5FirMLFGc_irvGrdoYpUt36P8Lxfwoi6-ozcilzROdmqMDKOcv-VTPHuMksbiU-6GJr755wKsABioN32t8yLdu-DPOiHDQnJgNeLUoOa0U4aTDcZoNnsFz5z7JK0q1kouerrwnRnb-SA4PyPsdd-Tep7S0I6jJhd5beJTkGAVX09OyuwYFE4x_rms8Ib3b7JjmSYJ6oY9Y8X2gBVbYoga8DC3DANxGjkQowmI?authuser=0&fife=s16383"
  },
  {
    "name": "Slow - Adm antiga Bio",
    "description": "",
    "lat": -23.5634147,
    "long": -46.7301801,
    "styleUrl": "#icon-1899-0288D1",
    "imageUrl": "https://mymaps.usercontent.google.com/hostedimage/m/*/3AL_Y2X6t2d4YA-Bix635NOxb8d20v2TIlRHawsOwwizRxWr-GlJmvfXcJ_TA66WHtZdf3Jdfougqw-9OWE30HmzZ19ok9H6UyF2ha4zz05Fhi1exQCgxmV-KzdcnxtJD96F6tgfBVoAY2w9r1dL0i7pW_9O0TMba5ismWlFhzxwIDB3i11-kvSe79_EMquNKRBXduASGLsiu47IfYYxe1SYNvKV-URTZQ3cgn_gdq0X0YrJ7Y02KLCvkh56RCr0?authuser=0&fife=s16383"
  },
  {
    "name": "Incêndio Vermelho",
    "description": "",
    "lat": -23.5635756,
    "long": -46.729608,
    "styleUrl": "#icon-1899-0288D1",
    "imageUrl": "https://mymaps.usercontent.google.com/hostedimage/m/*/3AL_Y2X7bYT6dizZkscfh-V9tRD_9LsAjofL4mL9MdF-AWRC0agtGPl9QUpCrsVn5PgZ59Hfh8VowS7q4X42KiqBQBKD97G4WI7_wFKreT2Y-_CcTZVKttW8ezfmBeeGIyO-89NBLXNN2B6lPeWLBXSAmm5k_dW1uRQFzpnc4K4SeZUHSuBr_0h8heR40JF-0ccvI_DJpH21Csdd4XyKdcDuvJhxTt3lxSt7IdigjfkWu3zXz3moccMuPbOya4EA?authuser=0&fife=s16383"
  },
  {
    "name": "Escada - Bio",
    "description": "Liga Ed Ernesto Marcus com a Adm.",
    "lat": -23.5637105,
    "long": -46.7296255,
    "styleUrl": "#icon-1899-0288D1",
    "imageUrl": "https://mymaps.usercontent.google.com/hostedimage/m/*/3AL_Y2X7IDfkKyR_S8pLgHqJt2E2fi0AI6SnZ2kj9AaNB6U3iDNp838QxucADhKxrgnMKEpBY4Dczy4cMn_9gVygPu3wqeaO78BxuLAuZj4h0DnLS55Gu9CCw-AmbI8fxWKaluN8ojt4N-8D8dVK_R6Dd0YjnKTlVA16GI5t5AICAnb_cmm0ZYo77hObf3PwpYXenV62nKNE9aq3rJ37w0mL0bKegYw1ma7dxFmvvpXrAZd2r7LhZbL5V95qdB-8?authuser=0&fife=s16383"
  },
  {
    "name": "Caixa d’água bio",
    "description": "",
    "lat": -23.5634664,
    "long": -46.7295503,
    "styleUrl": "#icon-1899-0288D1",
    "imageUrl": "https://mymaps.usercontent.google.com/hostedimage/m/*/3AL_Y2X7hyKn2D0LRp9k0fPghp3vrGikbcXW45xOIl3s-DGrnBCVOf4h9-LuqYjOliF9FtgAEqDIeqY40cwQTZX1ymPKZ_Lyz1vGUtVgg_tPyMgYOXl1t7FMF2TBLMbRNZo712yMdFv-ji9UftRJIG84Bo805aFAyFyjygGam9_vrH3lYLnYEwT16vE8kzdMHutr9mSuaoRrbX1Ozp-6fi1uE_8m8Nx8pPw-1GPNPM3Ra5JiSnUwj-kR_cMRMvI0?authuser=0&fife=s16383"
  },
  {
    "name": "Placas de Veículo Oficial no meio fio da Bio",
    "description": "",
    "lat": -23.5632069,
    "long": -46.7297334,
    "styleUrl": "#icon-1899-0288D1",
    "imageUrl": "https://mymaps.usercontent.google.com/hostedimage/m/*/3AL_Y2X4N9VwNXoG7F539JN1HS8OSQwhq6dAqXSafdQE8HNwsWYCrqWOd-LB8cxB42K9xmjiOuMb5UI54HLXf3t4qthAkQauBdamVC2161Kcob7ci9IPjZ8XLgq_F2f-TflJnf5qPfQCesFBiJvrp60J2tBSr4axqd9B4F4B57jsynt9fQRWg4dyW19IKizySvOGwWqdTgfmh-e_5pTOkG4WzFOPdrme-N6ukRHNa638LgSqki9TcngqZCagHwEk?authuser=0&fife=s16383"
  },
  {
    "name": "Corrimão de skate - BIO",
    "description": "",
    "lat": -23.563656,
    "long": -46.7294535,
    "styleUrl": "#icon-1899-0288D1",
    "imageUrl": "https://mymaps.usercontent.google.com/hostedimage/m/*/3AL_Y2X4UaxWSqZTY9SNsKcMqpzyaxG5XqZrPEjDY11UNkuwdnBeGr3AXHBSKoA5BtV0opHuDVF90DxqlzeTcgGOKqP-rsU6uuMty5cpMgtogHZGdUCWotm8mM9GytMDrsfs-ybfUsV7ZUQUDjyAm0aM9tXYS9pLkvR0dMGRz_uCAp2jjg87f2_EIpA_Y9IMtqZTlrjkKoDqrF5zejD9hj4EO6QzGwraMkpYL0ocuuEzHtt0G8h3HUm8P0-JgQHY?authuser=0&fife=s16383"
  },
  {
    "name": "Point 59",
    "description": "",
    "lat": -23.5632077,
    "long": -46.7299218,
    "styleUrl": "#icon-1899-0288D1-nodesc",
    "imageUrl": null
  },
  {
    "name": "Vote Chapa - Bio",
    "description": "sulfite colado na parede",
    "lat": -23.5632305,
    "long": -46.7303128,
    "styleUrl": "#icon-1899-0288D1",
    "imageUrl": "https://mymaps.usercontent.google.com/hostedimage/m/*/3AL_Y2X4j6a67qbghjbqzbH6hPGaISH0kfpOKaRZ-fXLJ3f1zUGbgy1wwKc_i-oMwh9trtnt7kAIQKSSTf8Jong3n8tD8y78zSg9uKT5_Bsl5U_8al9_kG-JGj4Kl-i44J-wxbbLVR7Y4IFzrWMmQ0KptQ_cuuI_GuEs9Otxuh4k-n8LDVCql31ivHuLjdLcp7MdcqHskrQc6lIYoQYK4EBaAEwXMwnozE1S7VUqo9hGnsRKx8li2Q2Geisxtx6k?authuser=0&fife=s16383"
  },
  {
    "name": "Lixo Seja Luz",
    "description": "",
    "lat": -23.5637158,
    "long": -46.7301575,
    "styleUrl": "#icon-1899-0288D1",
    "imageUrl": "https://mymaps.usercontent.google.com/hostedimage/m/*/3AL_Y2X4bIpcftugjjSkqDSCxKotZe-1pHFZpX9cXngNVR44MNbRAUjR2yZinI4MCBWEXP3t-47tJk-JfHn45vy7-Rlu4wtZBU1x1w279vePO3rVHvkt7DXl_XaBh9QH4m2fshF8T0JwHzHAdf1b_W5_HZVU0RoQe2D3SHen9KtyavicKeVFJHTMHcl_-kVdnBUzNTBHcQerqWL1w1w_fPhQrW6dEHi3EHPP-23Sd667rO-0DvBr3bkK5TN8DIXg?authuser=0&fife=s16383"
  },
  {
    "name": "Hidrante - BIO",
    "description": "",
    "lat": -23.5643353,
    "long": -46.7304666,
    "styleUrl": "#icon-1899-0288D1",
    "imageUrl": "https://mymaps.usercontent.google.com/hostedimage/m/*/3AL_Y2X7L-MwyRh29QyyRj3qRgYw-yqFZ8UOih3mq-YLfIBkPiMX8K5pUKIcRmHFu0hvk8YWy8wMyqoWKNcvuoBAZoEChZJP4irJOi2XCzXtkWLuNDFrytfcgpN_seQnsXPH321-m5i37BJMEdE6L2Wir4laO3i0-IkETIkbjdBlRo0DLSC0WjKgPZmVIRF1t_SiIhBKAKF3Ny9fXXk_2mW0wp5wJO6SLZ0nOZvQxBy5lpiTdoAdgSuAN7_u2Sds?authuser=0&fife=s16383"
  },
  {
    "name": "Paineira (Ceiba speciosa)",
    "description": "Dra Denise Maria peccinini Seale",
    "lat": -23.5637608,
    "long": -46.7305005,
    "styleUrl": "#icon-1899-0288D1",
    "imageUrl": "https://mymaps.usercontent.google.com/hostedimage/m/*/3AL_Y2X4H4Yfy5k4nsajb_oFE_E-jJX-ete722yc9C5YfHfwupgmNtORVdE0A6P-T9H0pacfp3s-FCaTb4JRf5h6BERtG5e5NnQ-7gcNdshFlpFME2r4PrUMNb3H0xFvdzy88yPBT0_FXIgLdmbS5Wz78q4IaKXePCdwSgyvVCVgqx5FF7ZlV2GOmCaIIpZX87v6LTBbngGC9uJZqF2euXublYCW2hZ54ALO_lUtim7a0oPUGmX-fMBHvhSuezKk?authuser=0&fife=s16383"
  },
  {
    "name": "PPK só se lava com água",
    "description": "",
    "lat": -23.5641179,
    "long": -46.7303869,
    "styleUrl": "#icon-1899-0288D1",
    "imageUrl": "https://mymaps.usercontent.google.com/hostedimage/m/*/3AL_Y2X5TTvMGJ6Yzq-wQnMqdlsJTPDRFv2fcRT5gPft1DvFOhafHQ2iAzUYUg1z_Mcl8trtpvwa4dmkP-cl-2LyzW-3CqR_fyd8WrnCUYGiArjt3jFaMfWDLeoRrqGvuy9tiDSNcxEA9_DCXD8V5QjJIHAxUWneaD9bH5j7GnWglPttEzLRXnMFif-uxAZV_N59z7glJ21RYAueOfveuvom5H9CQS9CbMLVEGbLfY8DDb-sOzhOkuaEqZcXN5QE?authuser=0&fife=s16383"
  },
  {
    "name": "Lixeiras de papel e plástico - Bio",
    "description": "",
    "lat": -23.5638313,
    "long": -46.7304948,
    "styleUrl": "#icon-1899-0288D1",
    "imageUrl": "https://mymaps.usercontent.google.com/hostedimage/m/*/3AL_Y2X4FTY1gwwfD-5kG_AxkchEwueGmZzBQPRqNpooWXsa53pHuiydIl8tacR6lY-a0kOarZAR7hKyKf7Je6mfnhAfXwdbWuMCqEuF_Wsk4zSZWsdja3u9WPhdRK7nuL9KD09CUm2mKpA2JX6VMuxahhxSmUFzN95y02tuxtrzw4ECk8OcEM_LHhtsT_5jQPmqT7lDKKSIhWPxobcSrZHWuKWO3fOJgThPNestFNKGaE6g5r9_3syTcb7jb4So?authuser=0&fife=s16383"
  },
  {
    "name": "Reciclagem CA Bio",
    "description": "",
    "lat": -23.5643413,
    "long": -46.7304901,
    "styleUrl": "#icon-1899-0288D1",
    "imageUrl": "https://mymaps.usercontent.google.com/hostedimage/m/*/3AL_Y2X6f5vdgqRG4613tI1vbZhH9MvV--tTrlK-mbXgjlHjj79MIqJVuTA7dV3Jmtj0VIhpFx7cq7OXStNJp_lhtaUYhEQjkKMvniyZa1aT9EELiOEwgOC1QYd6RjJ-7GEnyRVsBkH7kPOOZwHIfwIQJ2czX4KZm5lzfvwua-PbynOJ0v_l2mcUPvSZpyNaoRpKjeBD89837l6n2v1Fp-33Mc8mMu_52WokOe9OU1cpE7gM3gVPCKtvSVeR43lE?authuser=0&fife=s16383"
  },
  {
    "name": "Banco em formato de ponte",
    "description": "",
    "lat": -23.5643081,
    "long": -46.7304743,
    "styleUrl": "#icon-1899-0288D1",
    "imageUrl": "https://mymaps.usercontent.google.com/hostedimage/m/*/3AL_Y2X7sfl3E7imUnoHiW_Fg2C48s55nSxCKewfHXK4GPLq0PJBS1pfTBJ8MXfA--6X8CfFkBvG4c2Gax-b-pzmRAxjKq7JzRuGcPDuBvZAn9hymssgYC343pWlPrjsLxOZ9r2F8YNnV1pp3QscNP5jdyfmby-gPm7DF7zCO3PDGc3qL4rMzwSOtFgOohiJlBnBO42Qb6xE7MUyvMF2cQGvJ8MOPRz98_G3_s05dy1eI4l1cc0COgkYaN6S3_mw?authuser=0&fife=s16383"
  },
  {
    "name": "Escada CA BIO",
    "description": "",
    "lat": -23.5644101,
    "long": -46.730423,
    "styleUrl": "#icon-1899-0288D1",
    "imageUrl": "https://mymaps.usercontent.google.com/hostedimage/m/*/3AL_Y2X5eGOg2T0olZJQH5xZRjrmnwByJa_j3rrS2vd7_2hqb5vb6_Ys15r1emn3wfl-J-vLsLvnPx_eIw8hq9v6D6E8C70f483-kvOkr6FKdla-9C5KYcvzEOs4qRJvsNSsffIzNc_fQ5ViZVapV6R7fyFnoo3njhejugaRjzjq5tcoXAvojXovsSD-Jqy34wGQRNuIxnA7fEaeSJHCtlMu9E33TGSaHg0mmpnuaOYkbe7xZ8mPwAqAkp_Lu-88?authuser=0&fife=s16383"
  },
  {
    "name": "Área vigiada pela comunidade",
    "description": "",
    "lat": -23.5643529,
    "long": -46.7304549,
    "styleUrl": "#icon-1899-0288D1",
    "imageUrl": "https://mymaps.usercontent.google.com/hostedimage/m/*/3AL_Y2X77wOrFGU8kU1OfUuLH-zfdQUETorMUZzBd0PqkpMK6f4Fa4SFsIQfkF3NXmjwJTli0a51FyQjtnQDdQw0z-CQmb7iqxWOnsp3AI2fVQhTfk-il-AkAWGTCqvwaV6352W-sOGDaizla1hBkSZsjbknztiC6ReNE5YeRA7eYukEl4XejlzdestakXNow2RFz5tQOTXtuRgv6yVe2tFCQOfTSRd8sv9SJFRPjhPgESzbEWbleBGstajZMlpo?authuser=0&fife=s16383"
  },
  {
    "name": "Corrente na Bio que não limita nada",
    "description": "",
    "lat": -23.5642784,
    "long": -46.7302966,
    "styleUrl": "#icon-1899-0288D1",
    "imageUrl": "https://mymaps.usercontent.google.com/hostedimage/m/*/3AL_Y2X4SH4mb86bW_R8-RNPVsAeJg4M6PR3glLyOyVhjCUfnvv6s90GLi2m6oVEjJNMlWZvu3aDv9czGqbmfvEbI-tFfrAiGuqvQ-Kz7fuBv3MABoAHhcYXMpqA3PZ3JlMnkUR0rxwmtc-UpUqgKXVW9Gaiwfestgx4fpp7VzZm7aw07UI6ejns8PFoJrbHM6qzxZ-lRGd8M-Y9QObMdIPuHO8KLhhmPaQEq-9it6Tfv1fgV5j5YlmXGzRCiSSk?authuser=0&fife=s16383"
  },
  {
    "name": "Pichações CA BIo",
    "description": "Loiro; papete, maria 2013; nome + ano (Lara 019); me come",
    "lat": -23.564455,
    "long": -46.7307315,
    "styleUrl": "#icon-1899-0288D1",
    "imageUrl": "https://mymaps.usercontent.google.com/hostedimage/m/*/3AL_Y2X5J71x4FzAt2b5uu67eJlVM3YiD-dMgwRFBUyvZ9nGDUTzAU8pydHUbgo0yh4-Aw1kKkDaD3z5buv4mHs5qx4RqTo0GMxqGglPbECPn6gqxIKzryZHMP6WZbInH78gkRYHJIjfpN9cbhFE5bWp4vmiIWcsoLZpRpWaH0ZPk5hw22epR0-fzVEbLY5TGiufnyL_dgJ-TAXrX9rjbIXM9KouztiRWrRrbOqhVEfLMQdT5MU9y_tuR9eOKYxM?authuser=0&fife=s16383"
  },
  {
    "name": "Vaga de carro em formato de U",
    "description": "",
    "lat": -23.5639765,
    "long": -46.7302839,
    "styleUrl": "#icon-1899-0288D1",
    "imageUrl": "https://mymaps.usercontent.google.com/hostedimage/m/*/3AL_Y2X7Zz5Me9ybdRcm93UC1LSvH4b_WgHmBfRrZh62xhd3-FLvFRG1qXOIEI-aFPVoWj2VRxDsU1du0WautFrkDWYQHymDr7WBRp8hmKRpsQxqswN_G64dyQgooAxjPE9MQz4b4adjYSJki6o9tYldM74PiIYgplOIx8LFscJ0BvoB3e5REZ7pd8OpbewrlZE3j34xpUx3OA2vau_BMERbyr-ert3Yi1ZGcQFe3WVckM9WWlYdw5XmjEu-2bdk?authuser=0&fife=s16383"
  },
  {
    "name": "Xadrez - Restaurante",
    "description": "",
    "lat": -23.564607,
    "long": -46.730473,
    "styleUrl": "#icon-1899-0288D1",
    "imageUrl": "https://mymaps.usercontent.google.com/hostedimage/m/*/3AL_Y2X6BlYbM71ojmGMgAMPmmoPKp8eBrwNATiUQjtjBoa3SYSnEXeM4z2dqV1GgKfadqg23NIZme_Q8IgEUv8XVMuKHtZ28IMAz6ZZaDNZc-YkFAeKDu939Fml29UOaalrm8-EQkQtyAorLvMudVCkop63vkUpNDCz-tUHVnX3wQgtenXiLlljFdTlSS3fLoIzpI3aFdrBRgQo1kqgnJ0HqhrusVm-XZW50Qlwm9prdZTfnkd1suosOlYyBuhU?authuser=0&fife=s16383"
  },
  {
    "name": "Árvore PL-05 Bio",
    "description": "",
    "lat": -23.5642887,
    "long": -46.7302698,
    "styleUrl": "#icon-1899-0288D1",
    "imageUrl": "https://mymaps.usercontent.google.com/hostedimage/m/*/3AL_Y2X7HgqRhpJn8-n-JL3Z6iKlR3FZD6oLT72NMMAlLOBmCcBdvznkPLQoPK5bVIcnC1OrNsWaMkYhAtYu-xlu5r-er67oley2paIg1kmhgBtVDXdFKX5JHptMfF0Ke6FXu2sAXHJHi3OTxfd1veFrr_QNVsThMmir_SZ1y6IQLx5eUTSfz0AMbC6QcHYDEIsR-TPR_h81ogAbZXcVcEZeuyJjCeZExVa5aF4OEGSvn6Of19IbrCUwHZXJdP90?authuser=0&fife=s16383"
  },
  {
    "name": "Libras CA Bio",
    "description": "",
    "lat": -23.5644792,
    "long": -46.7306514,
    "styleUrl": "#icon-1899-0288D1",
    "imageUrl": "https://mymaps.usercontent.google.com/hostedimage/m/*/3AL_Y2X7MekXI7MBNYTBCkIljnmLmrQkrHMQIbFY1vFoZso1OD8j-Rk50CjKaOXEOb43Rx5BAb-ttAWaXpQD1CYiro-D9GJsSfRd6R7Xcli4Wi9ec-4qrSs9Dqz87g1LuNkB6-DMRgzmGeXuc5D5FdJrYCWvoesdakttOCn4qakR1zR5F7fQGvwVZyhNkfsExiTg6CJMNPEhPz7gzot5l-dHVjPAr38nvJ0yYCxAp--JSABXGuGqGU6Iq6_NpY2U?authuser=0&fife=s16383"
  },
  {
    "name": "Placa reforma restaurante ",
    "description": "",
    "lat": -23.564809,
    "long": -46.7305358,
    "styleUrl": "#icon-1899-0288D1",
    "imageUrl": "https://mymaps.usercontent.google.com/hostedimage/m/*/3AL_Y2X4Ummza_JSvw5MSVvdRysVIbwxe8t49IAiseNW6_Fw9xAp9N8o76hrInOoqjs9yTGt7D5h7SaL3p8lG19W-Sjtwa9nPLDPAAgPcotmoAe-HAclW3BCLsgbZslDNEkaZo4iVWOlkLk5M_5Z6g-IDoQ24Ldit4C4sgIL0MlosQMu0_N96KGdmuqhK_iZ9F1yd4G8zGbnwsqgSwiPj2bXrwOQH7H2qhA2I38vLyCVmG_2hZ_-OdZ561m3pNfQ?authuser=0&fife=s16383"
  },
  {
    "name": "Composteira",
    "description": "",
    "lat": -23.5643615,
    "long": -46.7306818,
    "styleUrl": "#icon-1899-0288D1",
    "imageUrl": "https://mymaps.usercontent.google.com/hostedimage/m/*/3AL_Y2X6E-TLL3-mihUPktFp-Ne-O54Q1HKjHfQaRqYiMVPcGTmi00Iv5ccp3khFBU3tV3VW6MwfznCrukIUxehWAejQVWr5XjE8xdrS3fqeqy1gCVdEACbXxAGYsj73REfQnLNkA-IGXS3bCX8HjKqt0M-V-_NJFVKZ4Jr864tb3SC-ESdqTIbLRUn7DkemTrIOyezx-De_fo0WZWO-joL44_v8eYF3glpv0j9IERCMbgCHN4jSNvZ_ciX9kiok?authuser=0&fife=s16383"
  },
  {
    "name": "Ultragaz e White Martins",
    "description": "",
    "lat": -23.5650598,
    "long": -46.7305492,
    "styleUrl": "#icon-1899-0288D1",
    "imageUrl": "https://mymaps.usercontent.google.com/hostedimage/m/*/3AL_Y2X6oD17ikVp-zXLpVCxeMHpjkwCyslsxYpYAqDdMByZKPuYg08npvVTsqw-vAV6c7o5hGnkjlVDFFSwAslGBBlI-MEl_-lVIB-pwSfPqs1fEeSnEZDvlfmOXYgM3TS-zZgWy8GHHlpqAGQ6fl3jwBD7te0GELAgmO30Cg0L_D8T9mqqp0XQ1okm7aEEoQi_qhxbgdFWqVOfcKL8dd4MH1GIcv9YtYFhap39MtHL7M0WIh5JuJiBEX3O6b2Y?authuser=0&fife=s16383"
  },
  {
    "name": "Darwin no CA",
    "description": "",
    "lat": -23.564555,
    "long": -46.7308295,
    "styleUrl": "#icon-1899-0288D1",
    "imageUrl": "https://mymaps.usercontent.google.com/hostedimage/m/*/3AL_Y2X7lubJfAxu5N3g5qfNKVGFcchhJZ55HGya8WvRjqxB1hc7XOYy2pQ-9jciqSIBFkDAS1rtdU9vpUVPiTXWpwt73sqyCspt3E1VpfRL9SbVYNtOFR9r1ERwGJlmOyec7yqkV7IqFx7R8g03lw7--54pDBoaETEa_zji8xvuVY3whyuSf89ZJVsdOUAjWl8eyY1cw3SUGs0kwak1owjjND0F85FEEzxRp6Xj4SiU3WTZnc_GVlLgLg1xNllw?authuser=0&fife=s16383"
  },
  {
    "name": "Favor não jogar lixo neste local",
    "description": "",
    "lat": -23.5642198,
    "long": -46.730113,
    "styleUrl": "#icon-1899-0288D1",
    "imageUrl": "https://mymaps.usercontent.google.com/hostedimage/m/*/3AL_Y2X5eoGep8OajujbV6TKks0k4pNN3zwA-Njhxyq8qsqDb4YNgeuJDg1dcZjRUuJyTYMVc8bVLMA5OXZC677qB2506ceRWK4A_zOgDvxAgdLV0OcNc6krN8ML-XOCFaPrnidiGTeqoTWrIZgiPHamG5QKIjwhLXTinpWG3pT2DIS5f87Y92gODbOnwAtaf7BO2YvHmb7M48DmWE-ju965gDT1-PspRZPdvWiGdXkx-RCKz1cnisfoRIb3LEA4?authuser=0&fife=s16383"
  },
  {
    "name": "Anfiteatro Sergio Antonio Vanin - Zoologia Bio",
    "description": "",
    "lat": -23.5644203,
    "long": -46.7300766,
    "styleUrl": "#icon-1899-0288D1",
    "imageUrl": "https://mymaps.usercontent.google.com/hostedimage/m/*/3AL_Y2X6RCkN2xGx10G45xNsMsokf7YVCD5rQhbIzmN9J8c9PKhyIrNwY_8qzGAYKopHBaFlDi1767KpklU9WyGRRYTvXoBNRHXA0wPYaNdsv-s_XiGHtfun7P207KH_Hc5ojapSDcjeK5SvVIQTNSmyO5ShwMaJpfTYF2S4UbkGLPcaTkxTvCBHFoRhybV4WimRPlhKgRM4emnx9-EXL_GUemdSvQIgLxj0ceLCxFxGc2fi5kV2zR6JnXeS9GNs?authuser=0&fife=s16383"
  },
  {
    "name": "Ponto de encontro brigada ",
    "description": "",
    "lat": -23.5649439,
    "long": -46.7308064,
    "styleUrl": "#icon-1899-0288D1",
    "imageUrl": "https://mymaps.usercontent.google.com/hostedimage/m/*/3AL_Y2X60u_W9w0W96NIx_290gcaev8lFAdb44KVObV-RXrJypkgXwr-pxuO9WohfJJEXoHNWTeO22jVSg9Q8JpxesV5J6PdyJDmZ5BJPbJylQT7_esV2Anuq_7F0SR8vuQkJ7In3hk3JFm03_uyeczn9kb4jNBqs0A06IxOSaTU5veXIFc2nTQ0rkzNCE5A7UpS-svTiHYBN5_HM1Cj8Qxu7bFVtnnxSd3vxasJP_vdWfE_mrDut-M078itmCM8?authuser=0&fife=s16383"
  },
  {
    "name": "100% Favela ",
    "description": "",
    "lat": -23.5649391,
    "long": -46.7308369,
    "styleUrl": "#icon-1899-0288D1",
    "imageUrl": "https://mymaps.usercontent.google.com/hostedimage/m/*/3AL_Y2X5LFjd31nX0VsmrZ3LvZ2jt9NnftUzWsY_NCAMtnZo49XPn4eSFzqdEZcIrtVintIf-SrOTl3aCCcVoh6LvFWOpG9hXH266iCMEvFWnvD5X4xa3uCB5P76JZIKlwLZ4g01_1U9JtyebTvIp8_8P-tNa_M_QInjH47td1gLn-FTvm0VQIVaXOcuEjNSJKU5D8oqILUvThsCcY-6ih52anYH9280lvY0ovR-68PIFx5wsFdzxGvsqpMtqljM?authuser=0&fife=s16383"
  },
  {
    "name": "3 vazos ",
    "description": "",
    "lat": -23.5642088,
    "long": -46.7302002,
    "styleUrl": "#icon-1899-0288D1",
    "imageUrl": "https://mymaps.usercontent.google.com/hostedimage/m/*/3AL_Y2X7Nif50-Ab0hDDTZXJh3aVg5to3RKMGAE_y40rbOlJH_utKMwv03nV2QWRWiyCgTowFbnv7HTRlumNv4hQ7gSqCUmYB6A1QYNGolYbZMlg5mIKB7C1mmqa28gSpIl8ISay6rQ3PIf-lIw_U42Gb-Y5DhlzdNDuM27rLXXBThHcvPKUg9pAkYTGo-rk2wf8aB3oEJC4JeSjaxH6RNgZGuBDSgroW3ek1w9QUZ11YAaTkVLrEau6kJt1FQJM?authuser=0&fife=s16383"
  },
  {
    "name": "Mural do anfiteatro da zoologia - Bio",
    "description": "",
    "lat": -23.5644374,
    "long": -46.7301035,
    "styleUrl": "#icon-1899-0288D1",
    "imageUrl": "https://mymaps.usercontent.google.com/hostedimage/m/*/3AL_Y2X6FyXot8MYhaeeevjWLvibJAIFvwo2CsFlKBtmgw4A7LTM8eRsbmsR_Gh5ZX3tqoNBSzlvrd9ItDRWKiPlFlHJOyoLVOz_Q68JjYQ-R9huqppr3uwhu0WM-yHYhOjStO9UtK8lC0tz73I6kn79snge7ygEYhs5YT2VdZOOFLQUP57tE8CIri6joyQEEplGyBdxebWwctg0iHALsc9K7FF1lH_OFg-oAPjkjzD2Acy2_7jkxdQMqWDXEAyA?authuser=0&fife=s16383"
  },
  {
    "name": "Mesa de xadrez com besouro pintado - Bio",
    "description": "",
    "lat": -23.5643995,
    "long": -46.730157,
    "styleUrl": "#icon-1899-0288D1",
    "imageUrl": "https://mymaps.usercontent.google.com/hostedimage/m/*/3AL_Y2X4xuCwK2s4y-7_ogGZKHo6irWT3jzJWVzcIV0YHbhivV5hsI0jDduLBUExwq1fxjha6n5J7dTFTTI54rgBikbOUgXjdKDguX1VWNcV35vtUZOaI6__2RuktJogbNJjvvhYzxgYdg2iWHHfj9WPuMwa-xIvjLyrTZqBvj6aCTAHi_1qBj6SR4YkXUcE0lweFteSAUsJFtUnfik-HXmC9O_c_2tBthkAwaGAs8AZ4EwjEFgrt0nK2DI--xBM?authuser=0&fife=s16383"
  },
  {
    "name": "Turma Maria Augusta Q. R. Pereira 1990",
    "description": "",
    "lat": -23.5645108,
    "long": -46.7303599,
    "styleUrl": "#icon-1899-0288D1",
    "imageUrl": "https://mymaps.usercontent.google.com/hostedimage/m/*/3AL_Y2X6Oy7CCQ6I_EBLfrKFc5JWgMEZo4Oj4X4_3ogwVLKDZ9Yz5Ea8wtGJ495bxSo7a2D-ZBM7raHDt6ysOnZQh00pd60sFaqgYM7p5fYvplQJzLlMkg0dYynXj1qb46VefqBDrRNQkfQSf4w3pLCcGOv4TXmmzRoVPLJ_tB3U18CGVKAN4A5plm76IRXWuz07FTpoZFXHd9GU3O3S-9g-VeGfKNKnZ2G1knN8bmNiksDAPuvA66LJvAd89hr8?authuser=0&fife=s16383"
  },
  {
    "name": "Cinzeiro - Bio",
    "description": "",
    "lat": -23.5643681,
    "long": -46.7301456,
    "styleUrl": "#icon-1899-0288D1",
    "imageUrl": "https://mymaps.usercontent.google.com/hostedimage/m/*/3AL_Y2X7scJmg7u_JRT6miwyyD61iFr1OO0LPPA9-l8N_YILCtM9RlQC-MlUFg9Ebi4wwavlwN0VV7UP1O6h0nOQC130KRI5_KkDRUxzzQYlDT3_Eec52qduVSq6QrK8qqPZbATkL1CkTLzSyq8uYY2iG5zHjdYCMg3Wy6BgX0uREdU8PorReqc9s92bYrK4VS0v01P3f5z2w_cs7xvV66GrDSJ7k-KasDlH573vgv1dx4DWWsgVA_aelPN-upjw?authuser=0&fife=s16383"
  },
  {
    "name": "Placa Vazia Perto Xadrez em Cima",
    "description": "",
    "lat": -23.5645498,
    "long": -46.7303878,
    "styleUrl": "#icon-1899-0288D1",
    "imageUrl": "https://mymaps.usercontent.google.com/hostedimage/m/*/3AL_Y2X6vJCrPfZrb8WAtEspD3FFrCCvWHxhdW6x6fctc_LqA0oWzTzCmqxuSWySIgbF-UHc9-0q__8nxB0QmH9GoywydWp3Mz3idXr697NWX5myfhNNl_gzoFdjzeNuhos0__TqpYozyA13yR3vAJMTbWmPRP1Bx7dWgfZPo21Sg-LVJQXk4G5Yqwx8RpYFUsDLBhDb0dNX-y3zJc9b_JOpl9iNfSNbvbBUNM7TkyiQaLwwCE-1mebEsskGEv7Y?authuser=0&fife=s16383"
  },
  {
    "name": "Choque elétrico Genoma",
    "description": "",
    "lat": -23.5651555,
    "long": -46.7303782,
    "styleUrl": "#icon-1899-0288D1",
    "imageUrl": "https://mymaps.usercontent.google.com/hostedimage/m/*/3AL_Y2X6yF4sPwiu6-J93x5C99e4efBopCAjLmHmsdk57Bysx_1pQJBItFGOWtMCzvZkhNbajrKb-ipfM_pgOOFMYEbLO8F35Df8R0cD-SJUn1L_GkIU2BdKi9R0o7AFMmXO_s9BiBwLOXd95ZEAYZIZjMmNQxagkMZKI3pyLL5NQCUHSLTFdARMbhScK4R2WrjEwlOFc40JUD6bqiV5c6adFpgghsobRXZxyVXrCCiXmPLN1dfd7iWmAwwVhrr4?authuser=0&fife=s16383"
  },
  {
    "name": "Depósito Depto Ecologia Bio",
    "description": "",
    "lat": -23.5645721,
    "long": -46.7300089,
    "styleUrl": "#icon-1899-0288D1",
    "imageUrl": "https://mymaps.usercontent.google.com/hostedimage/m/*/3AL_Y2X5E8q-CvbyFlT0Aa8euTyOQBkiimhZSRSrYXYjXl0gBW3dsPvEv9tVK3hWHqlO5FWFOivn7LVWMhWe1PujGXitbpjnes4QChuCuF-nqYXF4HtkBwgmbgCrqaFOGzye-gkwVD3a4bZRDk3nlsf0zUyuRGYEsCz3YFgeZKinOrdf7GcSfFEy0l-WvJT8tpPF-i_bfFZ1gIVpZP_drpJPpFqB4G0zn9rXrUcOIRpEqZ6lbhKNPuxOJIY0W5vo?authuser=0&fife=s16383"
  },
  {
    "name": "Vaga Deficiente",
    "description": "",
    "lat": -23.5644624,
    "long": -46.7302121,
    "styleUrl": "#icon-1899-0288D1",
    "imageUrl": "https://mymaps.usercontent.google.com/hostedimage/m/*/3AL_Y2X6xRIq5hxGLa7Uu_8dkpR-xzuVnjrjMui4VddNAKq_ApAbQSxACcOrZWUMbacBTO1QxWOS0UlPXfZXUjv7JzILiVU1nCMyveGsvCn7qa5ccsIXxBwweg4Vls-luxYQ7Dm87jQ10nKCDdndcicp5soYhTWfIjp3_-MMuURCkm8m78QPqMiKb3dIxuDRV7XRmwDFnr6wYPiPgZzcGredT7kTCfMA3cLf1kcemTJZpmBm62a8SE1oADUd91FQ?authuser=0&fife=s16383"
  },
  {
    "name": "Bicicletário Zoologia Bio",
    "description": "",
    "lat": -23.5645665,
    "long": -46.7299871,
    "styleUrl": "#icon-1899-0288D1",
    "imageUrl": "https://mymaps.usercontent.google.com/hostedimage/m/*/3AL_Y2X7SL_121azy2lLx5xVd7Axq0b6sSMP2VaMr8Byax3Xp-jrZa8N6niECCdMBrnEDT37qro9Fhb6qrSFYLI13d946pd8h8gMqjDwp7TOWEjLN-MLQWrvJNX3AVcdtg5kmM0LXvKv45Hldw-D92ZXfQZtdxgCpdQLxuGKG2qgDkfRWrNlzNPi37-Pg9PntgZaaPU7wODmWghYz6wnsYqbpuXIjjRbCxamdUYqP-_Bo73EKFrVK_PJWFAYNgnk?authuser=0&fife=s16383"
  },
  {
    "name": "Vaga deficiente - Ed Paulo Sawaya",
    "description": "",
    "lat": -23.5647085,
    "long": -46.7301858,
    "styleUrl": "#icon-1899-0288D1",
    "imageUrl": "https://mymaps.usercontent.google.com/hostedimage/m/*/3AL_Y2X5w48xvhIRxFU7akG72Yc-umVembEBO7UkJbFVJbyoVb5Tdlhd7GH6e-FQmMavg5lpbrAHZQihzlVy4lRZNL27yar69k0LKlsrrk8QscnBXA3RCeWo4DGr0Mhdy8OMzbAlFHMWN2oqLZJCJ8HlmXySH_qHceJ08ft4yTMNh7eeRDLMsJ7y64I1zfsIySAxpOhAlbCy3snWBu1xPBrdciEeO9A8U8JFgXrIDhNIuYbbLCz5N-KcSHtHCNfk?authuser=0&fife=s16383"
  },
  {
    "name": "Ponto de encontro de emergência ",
    "description": "",
    "lat": -23.5647343,
    "long": -46.7301656,
    "styleUrl": "#icon-1899-0288D1",
    "imageUrl": "https://mymaps.usercontent.google.com/hostedimage/m/*/3AL_Y2X443Z9-b59qSOBVkbcP5ipvhOF1PCY_c-IikFznA2z59v12fe6TMuFTsxu1mMJeVbu5OWJ_r_Cy1Q5nV7zOMjAzWxRlkiHkEdN68bAUpgUUvJoBO4FZ6s7UnK5Fgx5v0Znf7pazlm6HFxFqLzVNi9-TxK6Bx1sY1HEhoaj46qlMzHkQoIQggXBl-4gJXjr31jrjgMXnQGez8FbgN0kR1ZHPa1sW0WrJ-b5vg9B_pNMGIXKtP0fi1TvqgQE?authuser=0&fife=s16383"
  },
  {
    "name": "Favor não estacionar moto com escapamento voltado pra janela",
    "description": "",
    "lat": -23.5645315,
    "long": -46.7299878,
    "styleUrl": "#icon-1899-0288D1",
    "imageUrl": "https://mymaps.usercontent.google.com/hostedimage/m/*/3AL_Y2X6dWjKAZuiFbkEktORsnZtrziFCW-y17C5hngJ-z3GbXKZT-RMM8QqeVCsA8uGKI1zpV-uoexB-p4wHZQlHA4H3yh11zERNtllkbLkV5Rf49mkwRuXPREsbWs9Hac28VI0Cf7NdpuyZ3Vz86BL_Pw70tug7EPSGO2mChSxcZOtfftt2FbI5ld95P10BZxcSv5GJVYv9fB8Qzn2mz4rhhmQVLEcnIxAftIWdOgWQR2a8O09W8ajBfchuJ6w?authuser=0&fife=s16383"
  },
  {
    "name": "Banco Leão ",
    "description": "",
    "lat": -23.564974,
    "long": -46.7305515,
    "styleUrl": "#icon-1899-0288D1",
    "imageUrl": "https://mymaps.usercontent.google.com/hostedimage/m/*/3AL_Y2X7822AzLFNe9qRsI5OIYVceUEXgXbK68l_qPKKa9jCj0Vu3awCwUdjJly7CjGuKhIlfKAVOvzqstMtKPC5Q4NnGEcB_AWCxEwJWXgFO_3fIpKcooTH3PaqTsbRvVfEU6hdRKo8DHOt1chHjA12X9tXy5F1bDFoGMvjA1Di4NtygSIvzVX1oHMAai-lfgcmrqUnGtxwr6nA0_QyD-BMoUIcHb0N-CdYU4zY1rWu0Xhheaam62HRyxXYWLAI?authuser=0&fife=s16383"
  },
  {
    "name": "Sala de apoio a pesquisa - Fisiologia/Zoologia/Bio",
    "description": "",
    "lat": -23.5645488,
    "long": -46.7299743,
    "styleUrl": "#icon-1899-0288D1",
    "imageUrl": "https://mymaps.usercontent.google.com/hostedimage/m/*/3AL_Y2X4HmHNKbf05wtar5dWvq-oVWd_GeBmTiZou-rUnRCHH6n2E84JgPtCockd7Q_jgMx059M69n65nowbWVuzrpxVgu7M4URK_8EIy8Q2SlQOXibBd_KDPKjJgtLGdblR8mUoUdBVJOnLAbN4GpX2dDs3_euZ8wYs71vYysPTA5a9Uij-FefYfMN1HAncX3wdJA-BBLmfXwaSrg2XO8ljxKbwx02vF7JW-ZZhCjU07QHOX05A3-gKswt_hFEE?authuser=0&fife=s16383"
  },
  {
    "name": "Placa indicação jardim do IB",
    "description": "",
    "lat": -23.5651836,
    "long": -46.7307135,
    "styleUrl": "#icon-1899-0288D1",
    "imageUrl": "https://mymaps.usercontent.google.com/hostedimage/m/*/3AL_Y2X6itPGYaOM3Zn2H7m78jv2NiVYbi3-gpPRUmvI4AySvQQTVuwND5SzgYABPsLOxkWgBLI2KlAN7vpaP1iKMELuqN5xmzVHDWhYN1uMvH_kffN8VmV5RGh9aspdLWwMoh24uJEXn8k6UA_Dar4iVx2e1nK84F1VH7CyVzvnc0bG5kt1BPBY497UmNa5tHdhnJLdZAV4r3A_Ohxak6BEnVBCYlFiZk5-WI0NmRIJyDmnwbb3WX_ym1i-pnoI?authuser=0&fife=s16383"
  },
  {
    "name": "Estufa BIO",
    "description": "",
    "lat": -23.5653434,
    "long": -46.7307752,
    "styleUrl": "#icon-1899-0288D1",
    "imageUrl": "https://mymaps.usercontent.google.com/hostedimage/m/*/3AL_Y2X7C_wYVn5xelinxrmVU0HU_k2vTizhH1-S5pN5K1EkBc9SjcY3umSlqYITJZq_Y_8m9Ns7IfkPbvW2684fadPx1d2LSSUTDPzfXaDErdYUOQP96lmap2lwxX72kfnLvtZHL1yQoqnB8rXV6EiuXx3vCEt-dcWza3xKd4wf6sRQ494BmVfVv6VCW23cwRMS-6h_HCqxrTCzqiwXvQTZUuYXD7PxyI_cFZYX1fw8JWlA1-oUlz9HkgaCcV0U?authuser=0&fife=s16383"
  },
  {
    "name": "Lixeiras reciclagem",
    "description": "",
    "lat": -23.5647503,
    "long": -46.7301978,
    "styleUrl": "#icon-1899-0288D1",
    "imageUrl": "https://mymaps.usercontent.google.com/hostedimage/m/*/3AL_Y2X6mxt6rRL6JcXd8XQIb0ZaHNATv5LJMgJEAcP6UCmo82G_PIywi2-4NfFMrMTcS4CFAtl2HMPpcHxyt4MfeKuyR4qFlot5pU22OWYvfdXx_3Yymt6X3mmYmg-SVq1Y5vXvhnDAIO9k7gl0-T2N8SzltO9426zgmOO9KbMW8GkcE1lJEEj_BJIoEi86jYiord27Q5VuDmd7wdHDlQbdOeO_IQmfxoYyxBkpNjDPw4LtQSx47tLvCXtBq4hU?authuser=0&fife=s16383"
  },
  {
    "name": "Pixação Galla, on fire",
    "description": "",
    "lat": -23.5648534,
    "long": -46.7298972,
    "styleUrl": "#icon-1899-0288D1",
    "imageUrl": "https://mymaps.usercontent.google.com/hostedimage/m/*/3AL_Y2X4rBY5i1sZhk6pA1_AGEx7s-l8MGWQRV5NNMCbrtzKMEJpQ5TVJ7PFBl9Ni7IphoE3c9UWbQ1VXbOi7S7cftReEHCHR41Z3ij5LGngwyJpFYV4hgtUxrVKE0OoGKhkqkSq723g03VmQUls9Ki5cPoVGC_tUH9ObzaHGPsDT9Nl0qs6vUXtiTTt-f-46QI-HooBFJ7oeJF3sP5UsQjew2NMzwFD4c8PeNg4EkFET9QET-TBbpGM0fNh13n8?authuser=0&fife=s16383"
  },
  {
    "name": "Pizza Genoma/Bio",
    "description": "Conhecida como colmeia também.",
    "lat": -23.5657091,
    "long": -46.7306905,
    "styleUrl": "#icon-1899-0288D1",
    "imageUrl": "https://mymaps.usercontent.google.com/hostedimage/m/*/3AL_Y2X62R0PM0Tj1KnCHgzrv7qN_4SOMk5tzQ24sxlBRt5N5CpJG7DYTw0TKtEXcHPLJPC6JWISVsrVc3aS7rDz48d8Nf9LeowppiSq7Y8W1nVV-T2UmFw6isVzCpRm4DVNuRnHXoN9Ja-nme8kFZhe4euqP62wOE4EH852gic4j6cRCUran509EZpjynYCt7sNNt2Xe752PD_A4NFNVngqsWcMe5uwJ2GYtqjihtwPZRNi02a2j2NMhYjx2egY?authuser=0&fife=s16383"
  },
  {
    "name": "Bancos de Leão CD (Centro Didático?",
    "description": "",
    "lat": -23.5646757,
    "long": -46.7303382,
    "styleUrl": "#icon-1899-0288D1",
    "imageUrl": "https://mymaps.usercontent.google.com/hostedimage/m/*/3AL_Y2X5PK3dBiOyJEsGsjt2h0-2rw3yvLp4zFwskfNEjsJAYCGBjfGQ-_RMBN78EDZZTbGfAll5XHwqgFgM6anpJQCCYIFwWX8WzSGar_TSVROzpTbMgxNNMoM53NsiIgEdwJ5jFaapY3XUUoONGFADtIYrotmCH7ld5dgk0RmXVxvvH1Rp9wzojdoSXwZV2gEdZtk4m-iAxSQ8jqEMnUsvvWecHN8t2UCBpVdoFEGXaowedkpuWWUreet_JJ5E?authuser=0&fife=s16383"
  },
  {
    "name": "Placa Baoba ou Imbondeira",
    "description": "Prof dr Renato de Mello silva",
    "lat": -23.5658198,
    "long": -46.7306744,
    "styleUrl": "#icon-1899-0288D1",
    "imageUrl": "https://mymaps.usercontent.google.com/hostedimage/m/*/3AL_Y2X5SOhfWHubhFX-dpmQE7n9nVpnsFRXF9Mws46GL-ZCc7_GYV_Van5No48jkZcNknJssqj2w8YmiMB00I-h271umweu6GBLzmh_gxptoUpEnJUcLVF4z06c4pmFfRjXs220sdEV49y3lQl2fmD-XRH4ClskkUBLPUUh76X0NpJJYAPBfWBzULfMSjDSKZMn9pOSwWq_Xt9A5UYkHxKEwAiPhZhpPrthwk4OaqATThaE9mIK2Xvq4Y52QvvY?authuser=0&fife=s16383"
  },
  {
    "name": "PM verme que só faz peso na terra",
    "description": "",
    "lat": -23.5648627,
    "long": -46.7298669,
    "styleUrl": "#icon-1899-0288D1",
    "imageUrl": "https://mymaps.usercontent.google.com/hostedimage/m/*/3AL_Y2X6N7qsMqgWMyb3oFmr8lnwGWdpsLVlCcpZVIPqnHNuMnAHYlXLHMTB50LkILFyHp2dUA397YWqBTfBCTZlKAHd1R-yANCIJEQ13WF9FlFXaxDfCgJq-3INx05t4J3SFirLde-3ELBgbceZVxtCx7cn9FzxkaqIfHMFSbIw-1zrKWRk4i_uDhojjzlOqScZ3qpbMtHlzD6CRYyqyHM1sfDGlcoKva3PfhQ2EDBYwJgU9F652wKanSD77hN8?authuser=0&fife=s16383"
  },
  {
    "name": "Totem centro didático",
    "description": "",
    "lat": -23.5649827,
    "long": -46.7299555,
    "styleUrl": "#icon-1899-0288D1",
    "imageUrl": "https://mymaps.usercontent.google.com/hostedimage/m/*/3AL_Y2X739s2kLsblUNtXD1t8cIUiXbp9u409-GAouYmGM7RhUMOQpGE263cEKgXPdJAXx2mNaTLIGIuHCxUwI4tEeGLq_SH2NOg4tPqgQ5ZZFT7lW0uScFPH57kSO2TTsRbR_W8feyXl8T4aWBDzhawERUc3mNjlGRryktIP-KSbgTV4VHhkpTSDRLF_NjS6ucxmrST7tSHSCEIorrz6irNnP1x9ZCLmkVqdsSOKh0vD5EinlrO_OLFjYOPKuhU?authuser=0&fife=s16383"
  },
  {
    "name": "Lago Dreyfus ",
    "description": "",
    "lat": -23.5657585,
    "long": -46.7305324,
    "styleUrl": "#icon-1899-0288D1",
    "imageUrl": "https://mymaps.usercontent.google.com/hostedimage/m/*/3AL_Y2X628dEXmPE8a_xQ3eAoO74GjP6-VIVothAlrFAB5Z1Hz3PFxjd5Gpub09lmnyCUA1yxGv2bo56HjlGc2z_9hUL1ePzNSI38AKWy0hPeHIomKsZvApxdiBF5U6z_cEBDvZqxUfrf6PcYkNq2gAt7LBdjRV9IgCLxI7BbKaiCh22pUWL7yGK_Pqb-YAxK4xtsI3yF-dwcUFRuQtyZCmq0oMTvbf_dVUHCyv86U8EnfCaUhQjOfJvmgnQtSD4?authuser=0&fife=s16383"
  },
  {
    "name": "Container - fresco e natural - família Shimokawa",
    "description": "",
    "lat": -23.56489,
    "long": -46.729629,
    "styleUrl": "#icon-1899-0288D1",
    "imageUrl": "https://mymaps.usercontent.google.com/hostedimage/m/*/3AL_Y2X6MYF_W7kZDtPadhYzNRP99oRWQzuSSwQNdeJUXEM-zdS0_-rDjJ5DxgwvppGpHTX5WMme3lh3FBKvGXai3_mfsg7B2IpbL30aehQ_xbE-Qf1TzSrlItVgbSWCE2TUkdIxXI12q0LkrQO3rwodvYQ03iZW3o2oP_WA_m8Sk8M-b6Rs0ZMMVG_Gfwu4x5lgp6TH9qh9UHMJR8Aa3TeSgqBbmu5xhcaapEU_IYxqzDuTTGfMFEmjDBdKMwD4?authuser=0&fife=s16383"
  },
  {
    "name": "Laboratório de estudos evolutivos de moscas das frutas",
    "description": "Tephritidae",
    "lat": -23.565904,
    "long": -46.730678,
    "styleUrl": "#icon-1899-0288D1",
    "imageUrl": "https://mymaps.usercontent.google.com/hostedimage/m/*/3AL_Y2X7mlDOYxQ7qDYgZRtHbQlmu9g6R-nisKzWIdE0KMWlwmkCD1l9pJNESv3QBtppuQNhFooYSSl-0s2cpJyHEL7C_DRyGtlBCszpHGrReDYaQOf0gsMUoLHvbDF9esaGGZO1_A8Q7hiQ98_k4OlAGGGPUMWWNc7vu5GNt0wAXtCgc4GQI-ylsYtQujoUoZZMnxM4ALulRCfZlZ9Q-fQutOlogE0TZg2S_9CPpiX3fVqmUd4Op_MMNBbXhBZE?authuser=0&fife=s16383"
  },
  {
    "name": "60ª Turma Prof. José Mariano Amabis 1997",
    "description": "",
    "lat": -23.565153,
    "long": -46.7297842,
    "styleUrl": "#icon-1899-0288D1",
    "imageUrl": "https://mymaps.usercontent.google.com/hostedimage/m/*/3AL_Y2X7LOZXNsOuss7Y2QFryylQQYYQlFSQXj9iS8PZRd8lXDNnzJ4wwqQT2OByrCqV197xwhNcT3fUJbeU-l_GKW48jJqREcA1VxA4dOQs48KADpQdu7njCEGbzpVVoKoX2TKffd8gTNhFRz20DHvLMb0NeEHXG4L0j6Yr5FMOSmB8oVAybk6UbOadgHf477fJLO8GjG6gtiR4tFdecTzqaRike7gyLjTPWGlgdaweR2ic7Y7lVq4yn1GIxVKk?authuser=0&fife=s16383"
  },
  {
    "name": "Anfiteatro Renato basile",
    "description": "",
    "lat": -23.565851,
    "long": -46.7306022,
    "styleUrl": "#icon-1899-0288D1",
    "imageUrl": "https://mymaps.usercontent.google.com/hostedimage/m/*/3AL_Y2X4lafLMhx-5yX4SbyC750ftwkw_Ds8KARb3Pn9ZoAw-kUE37p1Hn3e7ObEu9nKL94WMBkDncfq9j_B6eEK4eZnquBtDz9KPUT4hxCizY5xjJRisg_8fsgT4cUtoKYogcK8F2msBC-oXWpiZRCNAt2Mh2T2GIjwzy3um6mFM_vCWVwXBLSvEHta8eZaeVIx2wn6BpFnZWRnN5fzesMC0yb6-BwxfT4VNwtnYMFI30ELaLBIGZEyeS3lGLyQ?authuser=0&fife=s16383"
  },
  {
    "name": "Ipê-balsamo homenagem ao prof Edison José de Paula - 2004",
    "description": "",
    "lat": -23.5650726,
    "long": -46.7298356,
    "styleUrl": "#icon-1899-0288D1",
    "imageUrl": "https://mymaps.usercontent.google.com/hostedimage/m/*/3AL_Y2X7g16UASfBu5EbjxltalSmUHvqCyX7et8q9AKFnjF1qyUkxCcPtXJldzdqWpHpksZBdSkbGuwKMz26zno1VJnwtsTE3xjH8y2RIfWmNt9Y0PCh0M3URCW_ienbjphkLT2zMqQBNYVgOYUF8x2J5C9cXcg6owlGy-Mp7ZcASDCF0JP67-Y7m93w50o9XYoBeJ9anImTrsT6J-uvHxmfdPRxAK_zzny-ZHbww-IjyEUJxx9y_liWWTLBXnEQ?authuser=0&fife=s16383"
  },
  {
    "name": "Árvore da turma 59 - homenagem ao prof José Mariano Amabis - 1996",
    "description": "",
    "lat": -23.5650504,
    "long": -46.729884,
    "styleUrl": "#icon-1899-0288D1",
    "imageUrl": "https://mymaps.usercontent.google.com/hostedimage/m/*/3AL_Y2X6yQrXFvkGacEFfBkvonqe_U9K1LdDSGClUmmA-FNiSlSA1kYzhTdZe511nOOA3juORwS_PMX3ZzQXlgl3J5iuHgy3JW89a4ppJgHkpla_zoW91D1TwG4L81nmOAQU8uatIGRb7Y46CSwh_5AKZp2U0UF9SfpqrbwWJF1l-N7PMU73YmpzinQVdm9-y7XIPYN5PGcj6yyeA_ac9VBOO53dmQk8uTTJH6SGnKo9VDGUNOvzU7-BPsSNqi8Y?authuser=0&fife=s16383"
  },
  {
    "name": "Xadrez atrás do dreyfus",
    "description": "",
    "lat": -23.5662649,
    "long": -46.7305835,
    "styleUrl": "#icon-1899-0288D1",
    "imageUrl": "https://mymaps.usercontent.google.com/hostedimage/m/*/3AL_Y2X7j85U7rSKAyweq2_IqwS-idjXQwjpNpRE0XYyDk4ve20h8Lv-LCuG2pso5tU7WVBv3GxQR0UXCflcTxPwKP6HZRoQRNZFURtmiHmcOkb74KCfjQRmm34cCvIOaEdhzCJc3eZl43dy3KtCwDNTs7jB9t3B5amljTWT0YIgFk7yuldnv-nS0BPABF-ht7JE5dny01l7ttdndnPQLTvGeIkH-Py58D3C6yFJ0dAZA5m4m05B0UBZQzuz66ME?authuser=0&fife=s16383"
  },
  {
    "name": "Encanamento amarelas",
    "description": "",
    "lat": -23.5651869,
    "long": -46.7300401,
    "styleUrl": "#icon-1899-0288D1",
    "imageUrl": "https://mymaps.usercontent.google.com/hostedimage/m/*/3AL_Y2X53C2sQWxSI1qDHyQg_UNmvLJC2ieT6hUtXHmKUVxqkDNH8Srm-RGxoDe2IosbdH_N-zOsKQ_vd4lSETZDd9QB1n9czPtfJIQNh0V3z7RznEYVQ5MG-sRQ1yIPn7Yg3r7SUMp7kgOTqJyQtUVEKY1rjOBogx3zUHteZ-I5RFzaHzDloXArbv3ZFC7vDdterrfCPwuwkLMNCzhhzYwleQq6-WWSvMEidanJbIKtTAnexx_urYT58-2XYK8E?authuser=0&fife=s16383"
  },
  {
    "name": "Placa Formandos de História Natural 1962",
    "description": "",
    "lat": -23.5652714,
    "long": -46.7299204,
    "styleUrl": "#icon-1899-0288D1",
    "imageUrl": "https://mymaps.usercontent.google.com/hostedimage/m/*/3AL_Y2X6JESz1FkOJnTlMOaF-HkKRfFz9RDmSdwfg3LImz4h2azaRCM7vOuBbuJSbWlV3n8iyOr28VhK8yN2yEnsZN0w5WPtX1WOdqKegboXkc5x1qNadT22f17gUxK7qbO7_4ozg7j_jj0fBiBgDZ2-c3fRa2-4hyvPVQbLzYHAACUF7ct7kxZsHh-pA6jSDWs9jbeWMweMBv1vR1-iT5msMKChkdKsDST6pEbMKq9JQ57WhbVMvA8EJHqD06UE?authuser=0&fife=s16383"
  },
  {
    "name": "Torneira atrás do dreyfus",
    "description": "",
    "lat": -23.5658863,
    "long": -46.730503,
    "styleUrl": "#icon-1899-0288D1",
    "imageUrl": "https://mymaps.usercontent.google.com/hostedimage/m/*/3AL_Y2X7s-7VK4i_0YPOGUJFe8ByOldkbg-C7mXlUg6X_XITh5DNcKpsKjRWqGZAPUvjezYerfFIVXXvkuoPZpNbPY121tDBbkXMSdqD7hQV4umcEVQKLbUBS6m4zQAnsxOxVTMIkgJGhXGVDi2Oeur8f32D-ir9eBL0L9Y936U_E-Z62g7F832nOFZdDiNxBdWs2D3Il7I7kq7cbccPhHdSw5bwcGPRKngYIJDF1_PIzQ8Gdq-jSPRbo8XdskRk?authuser=0&fife=s16383"
  },
  {
    "name": "Árvore 2428/83",
    "description": "",
    "lat": -23.5651611,
    "long": -46.7299435,
    "styleUrl": "#icon-1899-0288D1",
    "imageUrl": "https://mymaps.usercontent.google.com/hostedimage/m/*/3AL_Y2X4jD6WlfLq_syLBkRfMSEmLY-xlt8PRjzkpmfK9gYLdyqiBHEaEHj8xrqUKpuJ_lIgrImJrHdH_N9qupfSm0Y7AOKWZbao5WeM-Rb6TVV_qjaABeaEeZdWVAH_TZt6U2A42eNysfplLdVLKhq6DjofMpIsb0Fv7vZkxcRow9C5THldYFi0ajEwpfeRIng4QLH_ZlzHMtpDuayxObtItjYGb5p_ZEfwW2bH9ANnNoPRSr2rc7vkLX3Vrz5M?authuser=0&fife=s16383"
  },
  {
    "name": "Escada para a Botânica - Bio",
    "description": "",
    "lat": -23.5653813,
    "long": -46.7300571,
    "styleUrl": "#icon-1899-0288D1-nodesc",
    "imageUrl": null
  },
  {
    "name": "Placa de Proibido o uso de inseticida",
    "description": "",
    "lat": -23.5662952,
    "long": -46.7307516,
    "styleUrl": "#icon-1899-0288D1",
    "imageUrl": "https://mymaps.usercontent.google.com/hostedimage/m/*/3AL_Y2X6oWUFN3rVXIWNd6_nXzzi4LW_004G233nDVqYCLoW90pCQhzto8MSMsOQx6jPbVqeBN-KbFc6LUfvLKM9HOkol4lkBnDlxI8kJQ51DGVrbdMl0ju5aWvLv10QRkKocOQ1qDeo01kORnxxUnuZIqPPTXn-qLVBAgtOYf4p9N-5T8YC1rCh0kOxMvBt7PQMA5zF7oQMcKeC2WUiNr4w8j3KlPhprvL_uYiEPOunbc9MtsCeyJ6EbwP5nC_Q?authuser=0&fife=s16383"
  },
  {
    "name": "Placa - Antenção: Cruze com cuidado",
    "description": "",
    "lat": -23.5650142,
    "long": -46.7293561,
    "styleUrl": "#icon-1899-0288D1",
    "imageUrl": "https://mymaps.usercontent.google.com/hostedimage/m/*/3AL_Y2X4AdxYgFieUB9aGEQuGqx-HS4KuJh9cpryZB_EMUywLHDITSxwiThm5k-rch632SD2sQKt0FSsoJrM4pkQKBXGFra2x0Nq8c3pmL-wfqhB7earIlKIQpYzMOfqlbYbaKQIuKDrt24Qmso72StMgS2zWUnyeqln_KA_m6a-k6TKcbtJY1KjGR9Z01optzhlbn2kwTbfXAPGhU4tqnXidy-B-2ahMiS5u0P1Z8sB5D4_3G641ymy7z6oZ8t8?authuser=0&fife=s16383"
  },
  {
    "name": "Reservado Ambulância e carros com deficientes",
    "description": "",
    "lat": -23.5666551,
    "long": -46.7309533,
    "styleUrl": "#icon-1899-0288D1",
    "imageUrl": "https://mymaps.usercontent.google.com/hostedimage/m/*/3AL_Y2X7xbHZKLgZN7iFhPedZDqk4IIcVONpOeuxfY8kjmICEHWwsrQFDovIOiBVsU4yloWYc5-uK_ldtL8wBtt5fSJ38tBvv5lAHaBzjTA91VKTuuYv17oVv_1XDVWu1Iun3hUQPLE5E0H8lv1yS6uk4kyv0e10y3yOkm_6UbI1hyiZfx6L53Ll1-QgySRCC4W6aOsIX6k-xAHRIC8bKXHmClm0DbBbLvXx--YsN_0eOVRdNZYdq_vjM97Q29UE?authuser=0&fife=s16383"
  },
  {
    "name": "Bancos de tijolo quebrados",
    "description": "",
    "lat": -23.5653258,
    "long": -46.7299374,
    "styleUrl": "#icon-1899-0288D1",
    "imageUrl": "https://mymaps.usercontent.google.com/hostedimage/m/*/3AL_Y2X6OkoAhNXPQbhNKbntZdi3ovD8z7KlCiU4L7OLcMTTkaBU0fmIkY-IX-coJoS1X7MPAtPZ-NZt5bBE1DOEXeq3YBl5DmTJfOfAljTmzQagFhuVB7y6B2Ne7UpmW-LAnhgYu6yDTB8ZOEkDT3MhyS72gHkQMI8p6zti0iiSy4PHQyYMNTsuM1tJdjroPJymbofuNPh4KU4XNV22Tar8RCrsfAQu80vTnagnOWHbiXZ_bX2tB_SE8CrBid80?authuser=0&fife=s16383"
  },
  {
    "name": "Genoma",
    "description": "",
    "lat": -23.5668533,
    "long": -46.7308774,
    "styleUrl": "#icon-1899-0288D1",
    "imageUrl": "https://mymaps.usercontent.google.com/hostedimage/m/*/3AL_Y2X6M_RohtokhnD1PkYstRMS4OX3CNzjGKHF52HGKD1E36pDzwX_XQaL8OOE4LxIhy5ALw3bWFoUFm6cJATzQzH6Kiza_AgZOG5Tj_QANVnhXFoTNXPRwrKBmwvP9vwJyTT_kMRsm4YuKBH7S3Lk9SmTFNzcVtuOpYKwq5T2ds0047yvTJ4fjnbYZOFdrsyXxYl8AUmdc1y6Op3yM8c7V8fJejyip7Jmtw2Hw_0J8axVGgUaTL3MdM4yGKGo?authuser=0&fife=s16383"
  },
  {
    "name": "Laboratório de Herpetologia / iMac",
    "description": "",
    "lat": -23.5642269,
    "long": -46.7302907,
    "styleUrl": "#icon-1899-0288D1",
    "imageUrl": "https://mymaps.usercontent.google.com/hostedimage/m/*/3AL_Y2X5-LMvqVr2KmLl8QnHKlZln1KlVCT8jUpqvP1YEyemJov804PtSHrNR-yGsMT5xCWly1DTRpMy583tLylkT6V827Rn-ad-jc5fQiK3jwuE-zUQBq1dSntzhYJ0oxyuw-aywaUP_VSXu5tldZS358HgMUSLyokx5S96dqTk-gkDrSf6WbwVTBFPWodMuV23feL3_iXpcJY0jmRfxznWvNcJLXPqc2KOOwOE0S57CvKB3abn_BKGOZV8_z7A?authuser=0&fife=s16383"
  },
  {
    "name": "Trapézio no meio do mato",
    "description": "",
    "lat": -23.5653268,
    "long": -46.7300417,
    "styleUrl": "#icon-1899-0288D1",
    "imageUrl": "https://mymaps.usercontent.google.com/hostedimage/m/*/3AL_Y2X4HC9tltC4Z88-Uzb0vi_eVHzHuo92HX5534bygdT8Bylm_SBJlqI0VqSZh6ANEW5Xk5w_ht0eQ11auzOcEBAo5uOVCiUk0fVVFYXqv8xMItzbsD8--d2Y64bfV2o_FJOnmmYg4DITw9rwg14QHE6WmmndPBgevW-stgijPrXecTaWyLCZI8QILKlP-NxZ2z4BJuJ4oNJybtSAYiQPaIjOxBLz3vS9LduWazjYi0gwl8qfYH0eUTvVVYpY?authuser=0&fife=s16383"
  },
  {
    "name": "Reserva florestal - área protegida e monitorada por câmeras",
    "description": "",
    "lat": -23.5653879,
    "long": -46.7297766,
    "styleUrl": "#icon-1899-0288D1",
    "imageUrl": "https://mymaps.usercontent.google.com/hostedimage/m/*/3AL_Y2X6V6OTjJyigIC4qaXe-jVSLVhZPHzxeL1alZMkvpLOn_suwYeZ_ZNefODviqhET53UdtaGGgsIrMl-TwTxmiWxN4vCP9B-QhWe03I6NYJZFrvLxE8nKhrWArSPqnc_n-Rm7VMoYuCKNM6RD6OVKxRnhbb8J5p8LaHmkymt6g8z8-1U5o0IW3XZj8Aq2lH9jx9Qi5jBSXKaLM16OXV9hh1WRim5gvquO8rsAdFPC5eKaTwdPZmfBcthnnLs?authuser=0&fife=s16383"
  },
  {
    "name": "Entrada Centro didático - Ed Paulo Sawaya",
    "description": "",
    "lat": -23.5651277,
    "long": -46.7303546,
    "styleUrl": "#icon-1899-0288D1",
    "imageUrl": "https://mymaps.usercontent.google.com/hostedimage/m/*/3AL_Y2X52fxatBc48lpqrj2tgZmm0YgaqWZFI-YAR-z0fLJap1wYFtAkgVp9_1s1a8f3UcBdJPav3w2AfLgW5rwPNnAk0TSVUXhoYLomh57LLqlnYZCedl2kvpWtV-tVXWJt2jRL-3W7dV7LmctZLcPYFdw8f-dF5kktcu7X6EaTQ3rmCywb_bo_NgEeEcwELLtfg29wsYbc0zaDbVCIHZWeoyrLFfnpScFEVI0zW1Fpp3SqsmsjjYPombU-a0ik?authuser=0&fife=s16383"
  },
  {
    "name": "Para acesso contorne o prédio Genoma",
    "description": "",
    "lat": -23.5668302,
    "long": -46.7304418,
    "styleUrl": "#icon-1899-0288D1-nodesc",
    "imageUrl": null
  },
  {
    "name": "Edificio Minas Gerais",
    "description": "",
    "lat": -23.565941,
    "long": -46.729885,
    "styleUrl": "#icon-1899-0288D1",
    "imageUrl": "https://mymaps.usercontent.google.com/hostedimage/m/*/3AL_Y2X6ZhgbsLl4HHGrlyeb8GB_tfQ1yKxz700YCU2hAE2DGhmfprFjq1o_ci_gbfGWzUiXFuEsHTJFFhDUpmlQTSahAUvfLBkBohTGmhUIOUBJZjoX-lVjvEqsJ0DJfZYfrXniF9Zoc8t4O-QUAttsQLqj5rFS-MdUmGpE1J3kxzJCz63Z-dphpJI7WSob_pEcxbunETQWkzozLCgohSw3QF0K98KdF_l_4vshyms3reOgsHq3nUcD1Hb1ZPj8?authuser=0&fife=s16383"
  },
  {
    "name": "Área protegida",
    "description": "",
    "lat": -23.5667698,
    "long": -46.7302898,
    "styleUrl": "#icon-1899-0288D1-nodesc",
    "imageUrl": null
  },
  {
    "name": "Proibido parar e estacionar e proibido ultrapassar",
    "description": "",
    "lat": -23.5654046,
    "long": -46.730004,
    "styleUrl": "#icon-1899-0288D1",
    "imageUrl": "https://mymaps.usercontent.google.com/hostedimage/m/*/3AL_Y2X6YZKs8JfDOLQ99xP70PaUX4zbIocR0Seoz9PjUuLZ_OGwAhcwUZNUOQGArUTABzHs3PD1vz5M3Wf2WVUcBsMjIuDEwSXXFaScjHcJ0Cw3T4moc01sCFjPbCdfJQQM-8_H8ISA6kEEBdcxCwgfCTMkxSjWwYwb3xFZNtFMAYrDjOkQrbgZWoCUV78pRy1jPPA-FT3Xj6SL33Gt7FEas8s8O35zI-lIVWhyL78Fk0okYdNEH3vvWPDrAjAw?authuser=0&fife=s16383"
  },
  {
    "name": "Segurança do Pedestre/árvore com espinhos",
    "description": "",
    "lat": -23.5665186,
    "long": -46.7303862,
    "styleUrl": "#icon-1899-0288D1",
    "imageUrl": "https://mymaps.usercontent.google.com/hostedimage/m/*/3AL_Y2X7k1SkkjwOtuyVy9uJSyGemy2ziFhpybsKNO5cjgNJ877Klam35emQtKs7dOWS-PH4Hs3ExDPKMbuIRCKe0sTPA9nO_VYG305plW1ceTWUNDnEp6pA4fjgBM2fT-A40qVv7nJTq39TL_imUv8tYY3AOHmxpxhcRJcyGz17A5yhHoB1wG97MIf2ea8EQHzGC4KiflLm54C54zB6mvc3X7c283fYnoScbAysJMXHDo0VoKLcmsH16Hd-g_X4?authuser=0&fife=s16383"
  },
  {
    "name": "Carga e descarga permitida",
    "description": "",
    "lat": -23.5649827,
    "long": -46.7306062,
    "styleUrl": "#icon-1899-0288D1",
    "imageUrl": "https://mymaps.usercontent.google.com/hostedimage/m/*/3AL_Y2X6FFOkXAunN16pl3fsweQCn-6RLjjAwZrHNkcTFdoEmnic6vrhKHM28KxcN1jxRhiH5vxD_dBJ35iZhbyasG9spxQecKl0MUUw4yYR5cRdj5Lk5ohMWpW3Je_ZXyaJF-uc0EmTd7HLYvZYthkwNXSHORBK1utdq9oDQj4QbZBEp_dKZSCkPntyyWwOSlZObTdhEnIarbEmzQFmUr4Q0wxCyVKlkIZv-R6Py6jcsoM0cZfYwSMmgwDdLtoM?authuser=0&fife=s16383"
  },
  {
    "name": "Slay",
    "description": "",
    "lat": -23.5644718,
    "long": -46.7307924,
    "styleUrl": "#icon-1899-0288D1",
    "imageUrl": "https://mymaps.usercontent.google.com/hostedimage/m/*/3AL_Y2X60dJIpOq481Bvbl8zZ4FMJkiCCfxJknwjuNXS_hyQdC8gALqSsR7DjzXTGVSoalMBLZ_NCLhQWLvDgxCoBHaJ5JRFCtz-IV70p62804eSBB4KePJSdJ7BraZzyNRQn1lACQJqhkoaegpPCvaE7k6O3DYIyQldes_8lKznCCpCbLpJu-ndEJB2JNTJ01xuPq4gd1E9tBvyBN8SpwYBHPkCkhmUrzPvPWvq_x6GE7flHLpq4-erYNU36ahw?authuser=0&fife=s16383"
  },
  {
    "name": "Cancela - Bio",
    "description": "",
    "lat": -23.56464,
    "long": -46.7302267,
    "styleUrl": "#icon-1899-0288D1",
    "imageUrl": "https://mymaps.usercontent.google.com/hostedimage/m/*/3AL_Y2X4ArAZNWTvv1A1RrdSb45h_Mz4T-K5Ca9gTIu-tByMuB8xzecpOL45IgZGI4N2ugxrhyIcCvcdvPeYPMA8X9vC-jUvAogeT73bnqwlZFchcQQzwEvUI0HQ751jIdiUVXYS8JL9QMaBmNj8SP9lB7LYKRCOr-izpUJXfNcH_YS-rKGsz53dP5tz9EYHOMy8ooISJ0qBpBXCzRgSHRnmsSs8Qv4XWKPWgnuspjF_Uiw1sC6_1mhnHU0jTCu8?authuser=0&fife=s16383"
  },
  {
    "name": "Cotas Já",
    "description": "",
    "lat": -23.5661088,
    "long": -46.7303923,
    "styleUrl": "#icon-1899-0288D1-nodesc",
    "imageUrl": null
  },
  {
    "name": "Fogueira",
    "description": "",
    "lat": -23.5645147,
    "long": -46.7308277,
    "styleUrl": "#icon-1899-0288D1",
    "imageUrl": "https://mymaps.usercontent.google.com/hostedimage/m/*/3AL_Y2X5ppOYoJvFHV5T9QHTh2a-6htnNcNeWtngQpgtHPecdR_cUUdoLYAgqD6b3vIf40942HQ4eDBJm9jOe1RYIe9C5X8dy06QgqmLmnkRf9Wh3XOQ3nCYC5kxR9vhF_PytWgJDLsKCLSryh5SrSCUQV9K2-Zbsg9i-tm7vJk03uMGSOCdJIW42AO3btiVmhkq9IiyObUjZeYXMzgjue6lldAEKmFvGO1bNbr5mSKy4kWh3FdRZ7SeHeRx5fg0?authuser=0&fife=s16383"
  },
  {
    "name": "Centro Didático da Bio",
    "description": "",
    "lat": -23.5648125,
    "long": -46.7301517,
    "styleUrl": "#icon-1899-0288D1",
    "imageUrl": "https://mymaps.usercontent.google.com/hostedimage/m/*/3AL_Y2X4A3deCsDlBy6TDNXNMM4EVQk6MMnscDL3LrnNBlSUTGwfDOvKrUmf7lTHNt42r99wTzGqwgdpBovBzmSpmcoSLXIvwBFtCKJZnyWCjKmCN6rSvnLlGezkyyouozlzzkCBS8SvOszQkYvC8JnVPCAYQzkAVEo799x4IXvpouv0atRu4xnQ0P55M8Ltq-rimGZMh6_7wTq8c8s0k6camJd4J2xd3Wq9zKjcUueskwzoP_Virqccw-ohDCqs?authuser=0&fife=s16383"
  },
  {
    "name": "Pitangueira",
    "description": "",
    "lat": -23.5645346,
    "long": -46.7308516,
    "styleUrl": "#icon-1899-0288D1",
    "imageUrl": "https://mymaps.usercontent.google.com/hostedimage/m/*/3AL_Y2X50Ms15yqrsUZXjXN76o8KAbIV_Uc1Xaqz-vyrqBzfCFZRrhtXZr5qcUr9a2ntJbgxBoVlzZyXDvUqQi38yW1nxY7tlC04A_-_WNEVp2pLh_i_Ax5bzpJuPFsuK_F5PHd7INBukDaOG5jlQpTnRKILJ9tNYjWQpSP-D9MU_qQquSm69HSUiMVecS7KeSrSX_dguFXWP1xuTxUET4ooUyEgyAU52-z1-A5pqalmGAyI5T8aaryO23sDAkrU?authuser=0&fife=s16383"
  },
  {
    "name": "Pichações Abelhas",
    "description": "",
    "lat": -23.5645728,
    "long": -46.7308525,
    "styleUrl": "#icon-1899-0288D1",
    "imageUrl": "https://mymaps.usercontent.google.com/hostedimage/m/*/3AL_Y2X5HsMgCD2EDNd25FKVVS620XYs6XSsDXRCjCoHSqeLH3GG88ZfQe257L0ipRfL-263f2LrWdTIwX04ooE8yBbr-1NbLvpYKshafxAna1Jde96eFWhtkl7REGhxY-K_9W0YlinNdEr9jxE8hBjR1XN8lpm0t7mS2wGK0qNw44DbaaA5Mr1mCxvQZWjrX495rVfe3Y62tHr2qJou5nCsSxhLgDQ-wrdj-Sijrr5Xhov6dfE1sBBBUtgucxIo?authuser=0&fife=s16383"
  },
  {
    "name": "Lineu CA Bio",
    "description": "",
    "lat": -23.5645645,
    "long": -46.7308409,
    "styleUrl": "#icon-1899-0288D1",
    "imageUrl": "https://mymaps.usercontent.google.com/hostedimage/m/*/3AL_Y2X5Q6hogMe1R2n4PZI4UFJspMlGcMxZKt5VLtqmQ4hi_XH_WLMLO23Y3XR1SguU7TrhFPxnML9-U9FJAvtM5AIB79mqSAxn1p8WwCo4s6_0A-BBxMV-6C8MLyDlGav_NSdmALtOEbs0BEW3ErEfRSQg6t87SCwgp0OaaOqSPpxtXNrS4Ky0QPxz1RZf5lnhe712g2u7ZMbUA1MPsoN89Q7rAXuHg61Ugscs2pBMzy0vK6uz12OebHmWcPHM?authuser=0&fife=s16383"
  },
  {
    "name": "Vote Chapa",
    "description": "",
    "lat": -23.563334,
    "long": -46.7303125,
    "styleUrl": "#icon-1899-0288D1",
    "imageUrl": "https://mymaps.usercontent.google.com/hostedimage/m/*/3AL_Y2X79lnjTqAIU4VzZQqUCHaKPNLWTC_HrN2Wthdk3sRndNHvB_XwIomerNcnfMrvKHpBgCSePIjIdGZ8f4hJ3LAVRYy4AAzDru6BhJt26JHy305hNJ9Ai8ErsM2OdgpSu59kpCBT9EkK_-7IIh9cztXezS7FstfrW74MymIUOcNT_MURgnqmuUUIzun8IP-aSKS3oKa0m4adq9FKT9gIb9x-DqE__aD0E82Sz5RWFm9LH9msPrm48oavGnnw?authuser=0&fife=s16383"
  },
  {
    "name": "Portão 3 - CEPE",
    "description": "",
    "lat": -23.5619431,
    "long": -46.7157059,
    "styleUrl": "#icon-1899-880E4F",
    "imageUrl": "https://mymaps.usercontent.google.com/hostedimage/m/*/3AL_Y2X4i4GPh67m7bc1ie1MbHtMWul-vnj2s3Y4LU78m28Tyu49-CMQBuAtQOv3JQHvtgVeMpxKDUMiYHyngflvrm0DrgCrU1yz4bspuY5a03bXtlDfINUv5X2P3wsf-WwPgkt5OVogdpKMSHWajjkQSlpeLSbzMJNfV3svVy1er12XVjCVJDNgfg2x8m0p6imsh3wW-LG3QptMkyoIEkvB2zmb2uCTBn47Uj4xCHMdRgtXtvU3oTyk5zynFyKc?authuser=0&fife=s16383"
  },
  {
    "name": "Porta dos fundos - CA FEUSP",
    "description": "",
    "lat": -23.5619025,
    "long": -46.7162116,
    "styleUrl": "#icon-1899-880E4F",
    "imageUrl": "https://mymaps.usercontent.google.com/hostedimage/m/*/3AL_Y2X6IN-kUhfmybPAvI_rNivCG1q2ImdiIqQx27y8NCYXTIUKA6tYDsi4LJaYiJUSfoWNCsWCjh8zVcVj1w7jYQB6rIqv3l3Vy-N0THOcoat7IYoPk8HdoTapryiC9BTIwIPd38HcIYLu4qAyYgLI2YlupkYIUcqa6oskk7xaVY37yAuwAvYFp6wudJIBQzW2hFB8I1MayZxPp9FUBztswNHygDSt84Ysz-pbRpy96QkYl7XBy2t98ksMKtYk?authuser=0&fife=s16383"
  },
  {
    "name": "Mc Donalds FEUSP - Mercado do Sabor",
    "description": "",
    "lat": -23.5618527,
    "long": -46.7162512,
    "styleUrl": "#icon-1899-880E4F",
    "imageUrl": "https://mymaps.usercontent.google.com/hostedimage/m/*/3AL_Y2X6lHHkKQnOh72gKiDmhZkjSHWZFSsFEYp8hqwpM2ECnlra9u-cSt2ZNai83tGLBWFZILzqPSg3Uh0zcHbm6uuDeCZSNP6WuMkOLb2VPNgNC21dxOBqnAK-F82RGDKt8O9yP78jD71gTuTR8Pj7hlN98r6UvNsY3KC3iL2PlNZMeQZbY_QuPVTtktxIAT2pmtf_gUuKGJT7SOYyWHbYcWy-T72EO1bIcxN-xh_ZSYZwwsCo5ZG_xqF1VPRg?authuser=0&fife=s16383"
  },
  {
    "name": "Lixo colorido",
    "description": "",
    "lat": -23.5619799,
    "long": -46.7163104,
    "styleUrl": "#icon-1899-880E4F",
    "imageUrl": "https://mymaps.usercontent.google.com/hostedimage/m/*/3AL_Y2X757F_p1_zWm24Z46UGGp3pMei_ragegrNy-8SmqeesUBxcL3bTHEsvCnHrtiPdVQzUb20xnMxmKesd1_CgbysWwDJFVgHHjBgqGmNpzW2uD3tqPrgFPUZm11JP-2MHZZ-BolyOuGCypY241MdUTOFmLbimHvsJj54wbzTMe9dJFFTZ57Hl1gYrSpjSQTR8DUjpgWSfnQKakamFpdrLcjcJcpGsBziNDllXFjirdLgxD3-zywxRsQ5mUac?authuser=0&fife=s16383"
  },
  {
    "name": "Horta da educação",
    "description": "",
    "lat": -23.5627067,
    "long": -46.7150536,
    "styleUrl": "#icon-1899-880E4F-nodesc",
    "imageUrl": null
  },
  {
    "name": "Lanchonete FEUSP container / Mega Lanches",
    "description": "",
    "lat": -23.5621413,
    "long": -46.7164076,
    "styleUrl": "#icon-1899-880E4F",
    "imageUrl": "https://mymaps.usercontent.google.com/hostedimage/m/*/3AL_Y2X6zHh6f1DvDDD3XP0lz1uNyl7Ti-tRl-d-YpR4ZCG8-uJ_lgZyqWZ5HdjwC65v81dZry6pNFkW8JXqW2VIIVUuVycdhEZppjTgv3aCrkZy-Fw24GM4le7HyT3XFF4J12ZfkK3KICxA9RwQoRUm6C-hAyQn5oV-CeI1R66OVolaXzMhfOQubrAo9XY4ARQgGb0EXPpAIkjEdgP5KMXO9r9iZ-zYA1loJ93aD2KCldYn-nGIyqX2mq_rIghg?authuser=0&fife=s16383"
  },
  {
    "name": "Pia lanchonete ",
    "description": "",
    "lat": -23.5620453,
    "long": -46.7164115,
    "styleUrl": "#icon-1899-880E4F",
    "imageUrl": "https://mymaps.usercontent.google.com/hostedimage/m/*/3AL_Y2X6yWDSYPQkfak3tAe0z1xqHSGkQPjhF_cCH92jRyeeVI3Eoym4ds_SyNzTyJK35VQrfP0KBQ5kbvFZn20hM2CKOCzHQY77excHyTqle-uLtm_Fsc0TxBGXL1h6F2e1a9-AoDota4Drt3sq91fBIf9h4WqCqeC8lJvPE_WpBMKXjHQOI6FYoJx0wpOKegGPA1DK73MWIIPg-ifXEv14VQT0Qu_Q078tcBrc45sAvMXGTmVZ8qpyGcgxOGjg?authuser=0&fife=s16383"
  },
  {
    "name": "Hortinha FEUSP",
    "description": "",
    "lat": -23.5620299,
    "long": -46.7163902,
    "styleUrl": "#icon-1899-880E4F",
    "imageUrl": "https://mymaps.usercontent.google.com/hostedimage/m/*/3AL_Y2X6NWFeaJJvpixUY_MawErLhtM2YVAMKBYPI24ZAG4EGm6ppEb6IyFrofLhbEvBGct04FiFZvB20YQQD4fSOpOxtPqXcBt5Ev7KPIf3Tp3GFMdqzd3EfwjJuvu3cHklJlsaARHXH_nzXaI4mfvJ6OyS8lBaI9kxR7UizhH3gK8kNk8HrllnwU3MYup8YcnRUiYsgcS_Uhq1vk08X2FrpQbn5JocKozwGXvFip7jePfnBSagkag-20gICJvE?authuser=0&fife=s16383"
  },
  {
    "name": "Bancos Tesoura",
    "description": "",
    "lat": -23.5618894,
    "long": -46.7163497,
    "styleUrl": "#icon-1899-880E4F",
    "imageUrl": "https://mymaps.usercontent.google.com/hostedimage/m/*/3AL_Y2X51V8WvbIBduJOSiZPhNxeVT2bXT9aKFk6V7ed6sixPQqsB6jLRkMXBZ4lNpEL7VFnYoym6xMLnlQeOSfoVstSCUeFdI7wmoBjFf1o4NPInkz2UcgAtOOZ2C1RrHBnyiaQy1Kl01_KwF4c0jgogkUesjd7zUO30p-1zWtX-EealwfHFtcmdumBAUKUYgbVOq2BkaKaijS40ukn0wAaPe7h09A83ro7FBwlzmwcNd5m5rlmrlxS7UmPOmrc?authuser=0&fife=s16383"
  },
  {
    "name": "Devolução de Livro - Biblioteca da Educação",
    "description": "",
    "lat": -23.562863,
    "long": -46.7159503,
    "styleUrl": "#icon-1899-880E4F",
    "imageUrl": "https://mymaps.usercontent.google.com/hostedimage/m/*/3AL_Y2X6Ggy6Aiy4ke4r5CYBeGqeSsVHmWGravq7aaaec31hEOvW3ZY_UZFm_Sl5G_iVM0cDsS4k6mq_8DqcSCeZ_z5H7WeAE0cIy6kvXNbPOfbzObx6RtrSlJ_gt72aJcuMFc1AHXB8gZVcTxNZP3AvpRbg2LxftVhyzG_I6Kua_zmxQWxTLYKCc7hCFSonXRa7vVmcKnaYhZjhxnIcj6xS5gp0mE-97iu02nVa4VXRDSTfcQgx-vzBVCnz6HcA?authuser=0&fife=s16383"
  },
  {
    "name": "Árvore caída Educação",
    "description": "",
    "lat": -23.5627486,
    "long": -46.71602,
    "styleUrl": "#icon-1899-880E4F",
    "imageUrl": "https://mymaps.usercontent.google.com/hostedimage/m/*/3AL_Y2X6_UjbB2gGso_FS0mZdbLkxvkIfkhUNs5zSXhPx0ZJncaMkk1DiMsgC05ts9GOuG00snz3w_xG8lWoi1fMnhBcK5-es7JuMcD1doKiV608q6sxvEkawTAZ-tdvWn7XISJf8NDNT6GlI1t_9tvc1F3q2BLuLyVPMZI-FMmoEw7SS3wvAFMa-0-Si5aKk5NUjXh7VJIY7HR38VSyvzfUG7tjj9ugSDX02jZBXu4kAfidhxVItMOH0nObbIIw?authuser=0&fife=s16383"
  },
  {
    "name": "Vaga Idoso/Deficiente",
    "description": "",
    "lat": -23.5626638,
    "long": -46.7159328,
    "styleUrl": "#icon-1899-880E4F",
    "imageUrl": "https://mymaps.usercontent.google.com/hostedimage/m/*/3AL_Y2X5oRmMz156DwswEEIPGWJJ6tWjudbk_gvBkmUssuFtmCSM60l7HxXlQHygF-HRKmQ0BsbGOjysmyINaJF1oehxmaeoa49QpkpqrMzf9KLd7nTIFVAyC75qK5nBBhQeNkPLeKFdCfHnMmXjTCBDW-VGnabJFFd2c1WrmLHQ79fsEdV3FfJzRH8w8WBfJnvvqSUofO086TpFKETYffbUe1H8TP8V6F4A_ryTTocxcKFBJx4Jhpm79Y0VPvcw?authuser=0&fife=s16383"
  },
  {
    "name": "Horta - Escola de aplicação",
    "description": "",
    "lat": -23.5626188,
    "long": -46.7143192,
    "styleUrl": "#icon-1899-880E4F",
    "imageUrl": "https://mymaps.usercontent.google.com/hostedimage/m/*/3AL_Y2X4xF3rDN2Q9KLvGKuuojnlXCEqNvWS5GYUWsk1Bvs7aVYx-EkWsne9ZktJlOLNddZnIvFNEk4viof4Bx6eW5XIdhtLWwZQW0hX6Y4OhXsxh4ejhLVCSkkxSsv4ITlrbftlfZxNeqsMiGpsuCN7rwRlfoBfGHhCw565PnwsN9stTh2t5-l9GzUQo27A2nAmkDstuDoXxbgTGKVRegFlDGSoQEEgXtT7vXYEgK6agy5Q1Nk5HN1mgG4XaOL8?authuser=0&fife=s16383"
  },
  {
    "name": "Pixação - Educação, Respeito, Dedicação (HTR 1/2 Killo OHAS)",
    "description": "",
    "lat": -23.5625714,
    "long": -46.7144506,
    "styleUrl": "#icon-1899-880E4F",
    "imageUrl": "https://mymaps.usercontent.google.com/hostedimage/m/*/3AL_Y2X5WLQ0nyaUj0LDjaAT-NJykV_Q14x3faxUpBREzmy0GDQBUhaS0HDs_30A2TaxFHWGZin3dX064aZBENbefhk6gTahgI7yNfcR8LOLJlnRLkcI5tNdnwmDDD6FEX1LrB7BYKTKJ3twtoCBBM4dO-sgfJQv8x-y9B_ESPw2t9afHOxL-2nzxVHeFTuXDT_EqZaET-Iq7J4K1Z3LuMblcA7KhgKCxnAEdYQc0vIMgZddCKKBGGIQioU0F-ko?authuser=0&fife=s16383"
  },
  {
    "name": "Elevador Educa",
    "description": "Pia do lado",
    "lat": -23.5619505,
    "long": -46.7162988,
    "styleUrl": "#icon-1899-880E4F",
    "imageUrl": "https://mymaps.usercontent.google.com/hostedimage/m/*/3AL_Y2X5TvFlNchyjrKfV2tChCj54BmeyZKnlNb1M0fnXQOH2azO6u3U7ncOVbQktTnZ-m4RYsd1sQ8Fh-Hx26PkCyiaVhyOQH5qPHZBdaskSxHen17vfG3nYF34zAZ6fBUfEoDCRDj9bUsk1mMJCkiW5mUXvo3nI5AadlHcfLI7E7wJWktxWv9lOEmqgciA-wVzyBrz5mPg_5guqKbBaAC_ymsJBCDbRKMl8zs0H8eW83iDyPvVOFETF8tZQwR8?authuser=0&fife=s16383"
  },
  {
    "name": "Sala 32 - escola de aplicação",
    "description": "",
    "lat": -23.5625207,
    "long": -46.7145004,
    "styleUrl": "#icon-1899-880E4F",
    "imageUrl": "https://mymaps.usercontent.google.com/hostedimage/m/*/3AL_Y2X69Iv6vqzFfFOEZRc_aGYE1gPlWGtD5kKRaZONIiI3SXSO4NpjMMGuIIoV-sLbvaj8KRD9ALUrE1BwjTBgTq5empqQUhCtCFr9MI2zq7PQVvCsCVMXoa8PgHvM3nbfN8u2HRJ4NHtlZdtf78OJJqSvBTa1xtDjwIioZoilFfG4lmlVjLTEHTMOBMzGuX8wv-UHLaLef2ePeImb-8zl1CnG4BftcsDcrK5cVAtU_pRkf4DarnxdcS2UGkI0?authuser=0&fife=s16383"
  },
  {
    "name": "Fato puxado Educa",
    "description": "",
    "lat": -23.5618897,
    "long": -46.7160858,
    "styleUrl": "#icon-1899-880E4F",
    "imageUrl": "https://mymaps.usercontent.google.com/hostedimage/m/*/3AL_Y2X77FpwiLzcxfhpvTXLy1-osyrdxZkivQ9dzgRGmFm5Se1tJjqouHkbIYJo_OxdGCKCqQ2DjvVEnQQkzn1hco9mGvZIYDbSeaphBQiSGw2745rVbpClxnQ0tg-MOcEhtA4_idJNFY4E1AtMXGrTj65uO4ebYXjQzKFFVBLwcqUUdMA3-pdzm302O90DP3VQOE4iieM7r37m9cyAG5QS563_KF35vT8aWsYHJZ6gSsFR3CM4wCxKeEho0PfU?authuser=0&fife=s16383"
  },
  {
    "name": "Sala 76 - Nídia Nacib Pontuschka",
    "description": "",
    "lat": -23.5624401,
    "long": -46.7145464,
    "styleUrl": "#icon-1899-880E4F",
    "imageUrl": "https://mymaps.usercontent.google.com/hostedimage/m/*/3AL_Y2X5F92mx0WFQoamOQVK6R6gKwnecCUGYdNiXsmmaxRmXxCGyIuYaWDHClWIm0qqhbZ_8i9S6mMU6gyYYXUzZb-luSdhb0JT-GJIrf5XzPbPQpm6s2cidwmxXgacMH0LG4bQk3UwLwd-Z3Mrkh3ByrO-pTKVKa2oGwUSfooUzpxIJabLYQDiwAt2fI8sOYo8Zxde1Eo_2N-2x2PQ-Df3bI7b_DoDVCR6QIlnDnVfiGqqVcCCVhguZBiQUBy4?authuser=0&fife=s16383"
  },
  {
    "name": "Sala 51 - APM - Associação de Pais e Mestres - Escola de Aplicação ",
    "description": "",
    "lat": -23.5624065,
    "long": -46.7146242,
    "styleUrl": "#icon-1899-880E4F",
    "imageUrl": "https://mymaps.usercontent.google.com/hostedimage/m/*/3AL_Y2X6dqhQUEK-1kQEReA8kIRwuI6GmLVMT0V1fX0jN4k_-Z6Y8RyK7xrIvYrp5TAOrpEM9W0_-ijsZEPKuwJDpvzmWqmuJUs9WKshSx5mwskC8WxzvI-56WZk2H8O7wFFSvAaWVKgva7QdeX0dRK4tDCw_Fh-tdLsDnIlqEv1BOOoiAeMOzSwAbqfrel1THcTe21ZzbwwLqI5mBqL2UW-i4TjTSY7c4430xD84tf-ErZmJCK_6nlIoMspkZOc?authuser=0&fife=s16383"
  },
  {
    "name": "Proibido vuvuzela",
    "description": "",
    "lat": -23.5620868,
    "long": -46.7154677,
    "styleUrl": "#icon-1899-880E4F",
    "imageUrl": "https://mymaps.usercontent.google.com/hostedimage/m/*/3AL_Y2X7JOF-we4gDll5QgjU_8vM_aY15W_AM1L4FygwYT-7zo7KV1noFMMiYuGAcPOo9SLo1uCXLGp2FdBhpS22AmaV548JLkyry0umIihqrGBO8snci7DIunj2GU7wwVI2ehkO8uXgr8BnlTzeH_AoXBNCJSFhxC_jHA3YxpTksoW33k9xW7nuT7Myawt8UrAFfvVlal90oxr1t8huFObac5HHVfVlw3whUVaIcjS7bASA8VUePa68nGBe9BFY?authuser=0&fife=s16383"
  },
  {
    "name": "Abelha no chão ",
    "description": "",
    "lat": -23.5620848,
    "long": -46.715603,
    "styleUrl": "#icon-1899-880E4F",
    "imageUrl": "https://mymaps.usercontent.google.com/hostedimage/m/*/3AL_Y2X5Y-HheaMJsHgaYbMC8WJq-oG2YuttCbrdkKxwJAIVYgaI-FNhPbTVbCY702A4LoJY6iNbf-bExX8tOjBgesCKzxsGfEC5uUrhTf-TrR5zUZ-0qNGd0rAXb_ZC9yj7x6hk_shxEIg0R-R1QxKaatCOaO5VBATXDFTVmFH5RbrfbSHzmX2ZCMP4sJD8ZSjCxCqBwRFsP5MYMHM-_0F2lkzeXRjT_kTp1-rTlVzangfXDcWI-nhA7mdfb9u0?authuser=0&fife=s16383"
  },
  {
    "name": "Caixa de força C24",
    "description": "",
    "lat": -23.5621288,
    "long": -46.715546,
    "styleUrl": "#icon-1899-880E4F",
    "imageUrl": "https://mymaps.usercontent.google.com/hostedimage/m/*/3AL_Y2X4m3W0IAF3LgdTd19TUUKkqB4CdQkurAbAzwfRb1RZvyNYAkkcU2dMxhHNt472UIpuK8AGtgqVqdXlJsmec5OSAY218SmRUhCDLK6TUm2RkE9noB5C3guI_360SST0RtvqQ53eyHFaHFoig_Waa_vla-_Rgs3IkmSUQDKUrNM9U5rUa8ahe-EM3n6kINuJQBepOyAPE7reXffU9nUt0xSPSKbxhdjUoNRyOSTOjQ0K4WNlQ0bMyqpUBjJY?authuser=0&fife=s16383"
  },
  {
    "name": "Parede de mãos educação",
    "description": "",
    "lat": -23.5621196,
    "long": -46.7152783,
    "styleUrl": "#icon-1899-880E4F",
    "imageUrl": "https://mymaps.usercontent.google.com/hostedimage/m/*/3AL_Y2X62mZKT3fSXaczV-hJ19rARZr3I4vhGcEVq5i-NtKbGco71UJAEin8WDvkjjIaR_u0HSJ_FvzAJQ5jSgkA0Ttsg8iY1lfnp7F-ywjkuOwQ42HxNOtLRnsVRodxkzaj-YOEAhIlhgiVF0byYObamdJJlHGDZJsDQtENlMPpL3Mv71tDBsPY5ePYgk8sISv422GjR_zSHy0HWnMX7W5B2ZJLzxmCXo5YT7wGX_gq9cRyulxJ9ev7uGU6-Z18?authuser=0&fife=s16383"
  },
  {
    "name": "Poli dance Escola de aplicação",
    "description": "",
    "lat": -23.5625236,
    "long": -46.7145781,
    "styleUrl": "#icon-1899-880E4F",
    "imageUrl": "https://mymaps.usercontent.google.com/hostedimage/m/*/3AL_Y2X4dnUU0cNvL5x-Lq86rNJ-kEZYpCH-_r_FuHpZQXu_i27OWErHwILsY7vtGByb90izC6JijsWCkfTyo6gLOOWY0046ERj8EUmH_SklZkiwOfBqEF3lROHjlzv68DGQGjNZnvQTbpaLpI_vqB44RTsC9MaK-urScGZvDCsp5rETM3qsTb32xCTNnhf6flTTLaCer_g_5dVt2cuEX8IFUa168q2OWfi_FmpK8VZebygPNnRHB4gurd-Osj68?authuser=0&fife=s16383"
  },
  {
    "name": "Sala 46 - Escola de Aplicação ",
    "description": "",
    "lat": -23.5624407,
    "long": -46.7147538,
    "styleUrl": "#icon-1899-880E4F",
    "imageUrl": "https://mymaps.usercontent.google.com/hostedimage/m/*/3AL_Y2X73OdQJP_SaOcuT0fbaBTeD6QUoMxKMah9K6XOxy_nwQ3BDZPGb0kppQtjK1E2mfwH1KbNV13Wu_f0zJGCYVUtDFy61a1OFtMDpYSfrHohOU665kRwLpVnnLyc5Y8hpGADcSZoPGF7ywguadM177tkeb7VUazURVKpBqSr7dTBKO3o0DztY-aj4OJbthGqU9LJFzGadbWx6rF9tB93RmKrScSyUim9z0Iy5xcIqooQpDkVOiGHruB6S3Jw?authuser=0&fife=s16383"
  },
  {
    "name": "Entrada Bloco B Educação",
    "description": "",
    "lat": -23.5622392,
    "long": -46.7155149,
    "styleUrl": "#icon-1899-880E4F",
    "imageUrl": "https://mymaps.usercontent.google.com/hostedimage/m/*/3AL_Y2X6M22sS0OjzvpUGALfn3BbUsL0AurmV73md7PPCcsWgFH8MQjVBL7ExsYXyYbCVJlLj3auNfADlmJ-0FL9bxRST2dMtXjwDboWpBSmJv73B1_Rb8Q9XJ5A-YX3w4QzzQhn1iZwGSqAhcIdE3xpUbfjoI2PXMUvR2sYzj1bSOJhjHiTEF85ycAtj1OvPskyir9J6uWGRC5kZcyEpY8huNYiJtPe5NvKozhkL0pRyLiOvyQbI62DEw2qDSB0?authuser=0&fife=s16383"
  },
  {
    "name": "Memorial da America Latina",
    "description": "",
    "lat": -23.5623055,
    "long": -46.7150235,
    "styleUrl": "#icon-1899-880E4F",
    "imageUrl": "https://mymaps.usercontent.google.com/hostedimage/m/*/3AL_Y2X4A1c1IZhqb9PP1khcxhuv2Xuz_GtWC3_xmtSC0QkIV37zuy7DQ_zyjykqeblv8NaxnNh2RcKoKMFeaJhZsCPPEdpqjSBRSdmmimRA3rrD-y5lX9NyjOdAU5U9G1GgSFvpCLIogcICGD76UyB6inKaRmSqvsPRO_4GcBTEwbRUjC8c1c8QP_RErD2iboJh7VH2qRfJkXjI4vxdlefIlUGqx0w7iXTcT85ol_zE8LrQm0VJbZBBsl2XN32M?authuser=0&fife=s16383"
  },
  {
    "name": "Placa de Nada/Soneto Educação",
    "description": "Já teve uma pista final que era uma folha sulfite vazia e remedia a está placa.",
    "lat": -23.5623144,
    "long": -46.7151278,
    "styleUrl": "#icon-1899-880E4F",
    "imageUrl": "https://mymaps.usercontent.google.com/hostedimage/m/*/3AL_Y2X6HWd0FLhW2uApVopw5Q_x-_AFRfZO367lna4AGTlpDJ0Wnh3xF2gdtFrLkXjmtDTUmRiH8hsGmMlEPDCVgGN8HqrhqUlcmWrorcsBxMbaSfYWx80Ux5Rp7r_TQ7hHFr8ps1pW1CziT4ywfjj-9-z4Gssx3QX7AEjN4sN6NJN2fIFrSD3U7WkiCVO_sYpx2y_fIOcXtjvjlnAGEOXHfGUPBNTv16lYj7CQuaVb69-N_CIs7gbI_94XrrPE?authuser=0&fife=s16383"
  },
  {
    "name": "Grêmio FEUSP",
    "description": "",
    "lat": -23.5625907,
    "long": -46.7147907,
    "styleUrl": "#icon-1899-880E4F",
    "imageUrl": "https://mymaps.usercontent.google.com/hostedimage/m/*/3AL_Y2X4E4FHWepPyLCOupBVHabWWOY1Ky0SWFy5C7fO8o-SkLxpv-U0n7O00HFYLwoEbs_TNKXcOwSuF8eVjwWeTvhGdOR9hAA5cAxqqvDL1bCVfk8pgiUgCDGZm-Hm3jI-IkI5Gwup73VKeDtVLn09ZvOo05l2Ixa0aqvKhpXI1vpF8SISOi4DJu0cexsj-Zfa8--sivS93gyivNdaNSmigdDFkwRPFxpd5r16xKN1mD3gLRQqG6U4rXkZVuks?authuser=0&fife=s16383"
  },
  {
    "name": "Bancos compasso Educação",
    "description": "",
    "lat": -23.5622148,
    "long": -46.7153857,
    "styleUrl": "#icon-1899-880E4F",
    "imageUrl": "https://mymaps.usercontent.google.com/hostedimage/m/*/3AL_Y2X710fL4rtpDWEz5sxP8BYJCFB3RfGou_7widTMdHjtaGmwY2MLf5-yMvwrb2PpRdq1ZkTybgUy_UelAiozDQyA410H4y-fpnpwyamfysxXO15gsU2JO-cjTirDAf3DsoGC53GOBUBhOSv4ru1MKwsPEH2p1Vrpa_ZrBFneDtq8Ucg_2CtQAtZ8WPBgPpzjeZchP_1SMB_Ar0UnkxSDv4b1l2uk9X07XOboJ7nu5tEYM6pGYJt0wZnHMyuM?authuser=0&fife=s16383"
  },
  {
    "name": "Vidro com brinquedos",
    "description": "",
    "lat": -23.5621852,
    "long": -46.7151692,
    "styleUrl": "#icon-1899-880E4F",
    "imageUrl": "https://mymaps.usercontent.google.com/hostedimage/m/*/3AL_Y2X4AEuIDG78PDHAwBpo43dtPFiQPN_o6sEml8n9R4FYBht7CqcrTIv1tWhT2cpQCHz9qpsrZpn6Td2sQUgvAE_Wo__UsFbT2orwF4cYeYNd8ECJDR2T3bpBpwXtA_QqEYhf_WvnZzmds9iuXJM93HRXWsKa_GpYpU38prMIvaZORqNAOe1XqNi4PXGx5mNglswnPPWX5ZwL6JLHRJtfZPqIFZUi4QbjURT8FUY4J7qbTwPaNFJmmVVH4U_s?authuser=0&fife=s16383"
  },
  {
    "name": "Placa FEUSP",
    "description": "LABRIMP",
    "lat": -23.5625232,
    "long": -46.7147784,
    "styleUrl": "#icon-1899-880E4F",
    "imageUrl": "https://mymaps.usercontent.google.com/hostedimage/m/*/3AL_Y2X6SGH6o6ZqG_5tqFWTdZ69VFb9w8EDjj7Mrtceen4DM0h_uFyHTZ_85l0hcN_C6Sxi9X7Ey_DYyXgip__1ftyvtZUsRaM3AnrPxDIi2B_xrkYDUPMeMszqODc_lWHGouZA21GFzRKquGbJUTc6hsp_BSb-Y1wdWt5SqCZwlzO1aXXHFTjqc8YKnB-6Lc5zHeIpJSQu_lZQ1_TX01CrpTqaDBgEEXcYTUbfR0OiZuRNNNgA2WayfacFtd4E?authuser=0&fife=s16383"
  },
  {
    "name": "Bloco B",
    "description": "Acesso bloco A",
    "lat": -23.5625484,
    "long": -46.7148837,
    "styleUrl": "#icon-1899-880E4F",
    "imageUrl": "https://mymaps.usercontent.google.com/hostedimage/m/*/3AL_Y2X5gcxJN38WmAm6Ny7TXIy-EPX194pN94hIGMwqdTbNM0T5JqCRPjSzEmHwOQ2zz_FYMl4I9RVC2GreBVuKCLkD2mLh6CIB7_6S7Ke-92iG2VlzSRr3sziR5JlwZp9u4a6hUNzLzxbl55tp39IwGfmyrotuHJEqUCjbcQgDWVc0cq1UvcWKpqcA_nAQVkTREzs2i8n5EnJkxJnMPxtzEnzdIwnQ350M460GtHsrdRoH2fjsxpPugJUL-WWQ?authuser=0&fife=s16383"
  },
  {
    "name": "Porta Bandeiras sem bandeira",
    "description": "",
    "lat": -23.5624624,
    "long": -46.7149045,
    "styleUrl": "#icon-1899-880E4F",
    "imageUrl": "https://mymaps.usercontent.google.com/hostedimage/m/*/3AL_Y2X7_E-TQG7Nnyx9lpFR0IBblehyttwe4S9uM2lwNvV0cWEbLGez69GWREtVtCz-Aelp80Y2yqgSkQaz7bBS-8GOLS8PHnsrA5qOknKqJO1dKLFBFRDP0PkvX5iyhVzpEGpVtOtPn6E4_LFMJ7pBal7WmGdORXW1XYSNkmSnp9ox1nwfECmP_SdRFmKtGpJ_uXrq1JpdfD4pMBqhcwu-CG1WxDZVwwp5uVa-c6NDJKKFj7UucixAPEjCq7Ek?authuser=0&fife=s16383"
  },
  {
    "name": "Bicletario vertical",
    "description": "",
    "lat": -23.5627359,
    "long": -46.7143562,
    "styleUrl": "#icon-1899-880E4F-nodesc",
    "imageUrl": null
  },
  {
    "name": "Espantalho - Educação ",
    "description": "No parquinho/horta",
    "lat": -23.5630892,
    "long": -46.7143557,
    "styleUrl": "#icon-1899-880E4F",
    "imageUrl": "https://mymaps.usercontent.google.com/hostedimage/m/*/3AL_Y2X4OxMmSJ7RjzEOz_WR-lQ4GQmjU5PkG_APtCjuFRMPs4Leuc7xrj94ZDaSITFPNB_GB-uUZIB80a9CZPdiiIcFWj85ZdBlG1T3SH0qDWkgtfMQuhPBYXI4p28ly2fAZGvFTGeDoBixa0jImQiKeq-gkwmkyJxIxGjDTC-znQ7rWwJX-SyoDfUfpNDNYGFlCbcAMxqjHZ309VI1MZwj6O16nZTBmMRKNAgYs6cbG--rf-47afpoOZPWj1_I?authuser=0&fife=s16383"
  },
  {
    "name": "Pixação Skate Vibration",
    "description": "",
    "lat": -23.5632837,
    "long": -46.714286,
    "styleUrl": "#icon-1899-880E4F",
    "imageUrl": "https://mymaps.usercontent.google.com/hostedimage/m/*/3AL_Y2X5uj-OUSid0FBsnH16yN_lfjYhfI6tBfumwtqwxseuSqNYVSW00fM34lPwlqnd8OVEWhBOhlIWsaEr8qy0osl684CnrnLTIrnvQf3nZaDx6_s6ztyFSDvb_oT1IrulEhikx1zhIs2H6ID8XPN26zlw1x8gLpt0C-6f7RogNStCW4hx_onziLBPhfqxX6N7bn5ka3IixX89N_wHlgw12kXWan4a1KzdjA_skmWQ1sy94gG0pIieQFvSXQvA?authuser=0&fife=s16383"
  },
  {
    "name": "Desenho Parquinho",
    "description": "",
    "lat": -23.5631499,
    "long": -46.7142701,
    "styleUrl": "#icon-1899-880E4F",
    "imageUrl": "https://mymaps.usercontent.google.com/hostedimage/m/*/3AL_Y2X44x0jxdqOcjz9ev400_rBsK31x1dU3DiDGXLm2wIqlI4nM8zfvx2yJFN97u6fa5ubDCdUqb3Up3XCmmk_J66ggXzSboTb4KvybEpbkOeNfGZ2p1110KBM5XoB7qJLMAyItFKKgjSv4geanDee9PIjzQrjxeJVHD92xrSNsg0IFKh66oWos2b8dggluiUxZsmkNuGmvpcm9Q3US1JD8_E55kHniWhvY0MiOM8s6mQ-1Jd4Zl4mhgkAYoN8?authuser=0&fife=s16383"
  },
  {
    "name": "Pinto da educação",
    "description": "",
    "lat": -23.5633402,
    "long": -46.7142815,
    "styleUrl": "#icon-1899-880E4F-nodesc",
    "imageUrl": null
  },
  {
    "name": "Pixação de cara com alargador",
    "description": "",
    "lat": -23.5632283,
    "long": -46.7142839,
    "styleUrl": "#icon-1899-880E4F",
    "imageUrl": "https://mymaps.usercontent.google.com/hostedimage/m/*/3AL_Y2X6q1iUfaqZ5Y02SN2nyfU7kM912v91K4PfJiFs9jBANcZp4qw_F1wDMCOkkDMuMFGRT_qmATmF49f3Nj_dOVhOOm7aKgWtUJjOo8vvV-fPZAeZy--urDH4G_e5ywJy9P_f4TLM02YzBUl2IbO63tNyiH2NQH6RV_ZzC9bLJC8Zw4a6kSoatsoGhdo82Rf3Edy-uWBWsArKk8jEX7NsxZKlzl1uMTs5vw5Mq5DsLft5m2HsCoAw_iVExswg?authuser=0&fife=s16383"
  },
  {
    "name": "C23 - Educação ",
    "description": "",
    "lat": -23.5638069,
    "long": -46.7143709,
    "styleUrl": "#icon-1899-880E4F",
    "imageUrl": "https://mymaps.usercontent.google.com/hostedimage/m/*/3AL_Y2X77YeHrxOwwdMk08orSwF6HRfDdEHLfXA3dmpY_V434ITXfn8yeO66iPcyGv1qYTqbQlAu3l4bmo6v8k5GZI735tT1UeIsNK9NVaNliOQzna5B4WrX6OR_BTFd_mosyuhuXvb-MkEJgUIMVKmbITbQZxgtxEoEttcSKyCHJvR_2fhyTD4Vm_IWvJOVa5UDgDtMjxTK9bMQIyl5wjGMR1VUCAXL4X7kFnmWrmvmKC0BbLiAEjixJBuAqJ-I?authuser=0&fife=s16383"
  },
  {
    "name": "Portão creche educação",
    "description": "",
    "lat": -23.5635118,
    "long": -46.7146929,
    "styleUrl": "#icon-1899-880E4F",
    "imageUrl": "https://mymaps.usercontent.google.com/hostedimage/m/*/3AL_Y2X5bEkNQP8YJsp1izmktU-YsVfbswDRVhmhQC6YF9Ju4xQF_PaUx8xgwN__9ux_q9N-AI-sxKBrzQGAQo6YYWhrv5htih4I75eF54NO1bQNBUfrS68cvnTVkA6jzM4skvS1w-JAjwABCqzczRt-qjUPyPAT77PblefNLsukBb03opam_B6L8a2nr2aCuc8RfRWw4iLrRaRz4zQwMD6mPOivLZRFAFF0c_fAMuWB3PqGjFdYdoIYRY_6zVzU?authuser=0&fife=s16383"
  },
  {
    "name": "Banco cacto",
    "description": "",
    "lat": -23.5635018,
    "long": -46.7148111,
    "styleUrl": "#icon-1899-880E4F",
    "imageUrl": "https://mymaps.usercontent.google.com/hostedimage/m/*/3AL_Y2X7eVsNvYGZY4Dip3Pvq2iZCavWICCdHSzCefmKgEUjDI1KMeta-oHbmmw8jo0yiSfGWE9rmreAaiD37Z9R8UXNYY46voqPTc02drcgJqvHb29zCGkIjaWQTUQyYvdcPy3qA-_hYSqQ8nckNMWlfPQI_JHpYTzVerNw0_DxXbomIBS7Mu-ZbpMZMQDs5qvIQKEsrLntdrR6VCsGz0q4h1FBLeWF7fKvPcfIMh-QZxNyNJv5tHgUysT5kBwg?authuser=0&fife=s16383"
  },
  {
    "name": "Floreira onde é o lixo",
    "description": "",
    "lat": -23.5634509,
    "long": -46.7149883,
    "styleUrl": "#icon-1899-880E4F",
    "imageUrl": "https://mymaps.usercontent.google.com/hostedimage/m/*/3AL_Y2X5iIaUbSi7Xd21VNThiFo5rPbJnjIvGWzRNnZeu2WjIHBFe9SRqWikF7v6-I7qOMm8VizADSwNj1-2hmeQm82NHXV_NyT5TdTYmD1pdvP5XuvlVs4WqqWiNM3G6QfwXS4Hr9Pzq4HiwvBgJjADfHqVLny7hIrPftDiP8U4wR19ncy1te0m1-FukJAtRJDMNbQvnIUzl5q6C_ottkRkWile6wLA4o5eoQEbsKS7EtlFtUTkjsgXrULoTO_Y?authuser=0&fife=s16383"
  },
  {
    "name": "Banco menina",
    "description": "",
    "lat": -23.563433,
    "long": -46.7148976,
    "styleUrl": "#icon-1899-880E4F",
    "imageUrl": "https://mymaps.usercontent.google.com/hostedimage/m/*/3AL_Y2X5UinJnMSJay2qfBTeugdKQTsfhzK9mQk8BJOWAThT8S-VmD28cGkhrM_23CbVSSxmS7oXfpdEqkkdxzYGar4dEM7-DkDlWJ111eX7PazXWItuCGyi3PGuSa3Uf0CNAhEYjQEtJ2e1zQdABR4wk7LJ9UxwxSO4OjKJHOb_VCiJCv6Xcg1NPQtiPhVr8p4x9-MGVpr6qXPC5ZKgEq7SbvQcmqBrroZp5rHZGEwUiQPpx7m82KUHQl9Jphf0?authuser=0&fife=s16383"
  },
  {
    "name": "Cata vento / biruta FEUSP",
    "description": "",
    "lat": -23.5637326,
    "long": -46.7148764,
    "styleUrl": "#icon-1899-880E4F",
    "imageUrl": "https://mymaps.usercontent.google.com/hostedimage/m/*/3AL_Y2X4by9ejTOECRnLdCPLAzBboGqbQAWtW_gLC2GVjamW3IV9EDaXDkP14ZoOK5VFP8i3EkqkOXEVoJzzk5j5DOU8XyNpHph9hmSHpUIOY_bd4d76XtPjv_nQdtCupK8U-W66J_J-Qw0W96Q1yVMVNmLK3xidtuov4BCdxbJunBcCyNipLlZQxqmOd2oyWJI6EBzdevGR9CNttisaEeJh7HhdmOznFwXnpgSHjY3SEN2wnXPXQMG41kHMpM6c?authuser=0&fife=s16383"
  },
  {
    "name": "Banco menino Creche Educação",
    "description": "",
    "lat": -23.5634679,
    "long": -46.7148319,
    "styleUrl": "#icon-1899-880E4F",
    "imageUrl": "https://mymaps.usercontent.google.com/hostedimage/m/*/3AL_Y2X6ANApYWdqTTkkJdpNal3ME3wxmqnZx-OGKswzOV5ffuRGc5x4rBsQAMRrsjxcTUTuCC4-cya2E1iUaiE4PnFaI1NXeMY7AzNRMWpucUIa_yajh3OAkUjWrFGu43lO_bY5wL-isiPibazXouFiQ_ZBIgOHdEfG7nK7_f09hFK_dx0R_jcSb3hbMbYIk3rNDs-vPCZe7vsQsWkfGxHi0DrzQawCvF41EC5ybWd0lW8U0BHkQP30rqaphVik?authuser=0&fife=s16383"
  },
  {
    "name": "Mini pia",
    "description": "",
    "lat": -23.5634287,
    "long": -46.7149332,
    "styleUrl": "#icon-1899-880E4F",
    "imageUrl": "https://mymaps.usercontent.google.com/hostedimage/m/*/3AL_Y2X4EcAhSzpS3hkcwb0FMybLlAOV_v38WSVqOBYxbd17thLIqk8vGrR-k4cxft5cYutA_osiUnJL72PJehCW2JmH-EbPpOuWwO7h4R3fkGQotCwDLL8K9JNECNPprF7G2arEbxfgObMynRxJK5noLNfeEJTofUAufMg8feMcLMJ3PEGZ3_oHU4SwO6piY7S3yYpGIVYVYjbps56RTVYoLIZA0iXUko6RPeQTtkmYl6ykbexQGk4hCPEvNBgY?authuser=0&fife=s16383"
  },
  {
    "name": "Caracol da educa",
    "description": "",
    "lat": -23.5636108,
    "long": -46.7149966,
    "styleUrl": "#icon-1899-880E4F",
    "imageUrl": "https://mymaps.usercontent.google.com/hostedimage/m/*/3AL_Y2X7i6dtruBEuVMbh0t6A8QS_E3hlHMgsBPXkwW_9418clDPEUuhG4ZCa4hNd2SZS7EmHQ9wHkJjz57USu9unV7zPrHU4MI-8z4bYe7nog8dca0tVLbGm_Kq719pmCy_EYBDHZ4eWu1jgzMFVxmC8yT34obBYiS374EdIasNOTecciGR1Rb_b-5iNhEZ1LgenX1vmAO3sbTbQm2owWQVTfS4oWLOLXzD5wWBwLD8EtVsYHVdpUuJt798eouQ?authuser=0&fife=s16383"
  },
  {
    "name": "Dinossauro da educa",
    "description": "",
    "lat": -23.5635138,
    "long": -46.7150279,
    "styleUrl": "#icon-1899-880E4F",
    "imageUrl": "https://mymaps.usercontent.google.com/hostedimage/m/*/3AL_Y2X4PC2elNr9lZqqKyoZ-jJpbeNrakkiBP9RAAg5GaYCsKuT44FIDsMGptvAm5nSTjEDTRlMQc_8wsN1BHPCkFJBbA2ZciqSFmcLbyoSF6-AVi-kE0CewGwxG4OSloqfo0zGYPkgR1SBd6dk1_C7dURG8lh8f9ttUxlolV7wk8yj5Qyt5MHQcfQfdIzuMm5MUnAvo5Ye2Gf1cd7j3hhU19bw9wkgbRaiHonheGaWC14nftvgaKyfmG5CJvGU?authuser=0&fife=s16383"
  },
  {
    "name": "Xilogravuras Creche",
    "description": "",
    "lat": -23.5634363,
    "long": -46.7148531,
    "styleUrl": "#icon-1899-880E4F",
    "imageUrl": "https://mymaps.usercontent.google.com/hostedimage/m/*/3AL_Y2X57KEqnUSkkB3taPLlZVJ5xpAlUvyeU1q-y31e5hFUHbB1GhmZhqmZVwq2cvV4c-dtJL19JVLct541L6fFNAjIrf1dMtVC8XpUzgmiyPJDfmqKRILXSMGER8AaJuQT1YV9gPuKp0pFLiojp4RYO1ttuVjmQ72QJ_Sk6wF_0XbfRUMpd-2LmYSTBAlNSR7KzHvKrWXO4ZnkIFdw_1T0iZcfoxS53I-_w2S18VMKWdsvhYbcaspraYmI0fNo?authuser=0&fife=s16383"
  },
  {
    "name": "Caixa d’água ",
    "description": "",
    "lat": -23.5634546,
    "long": -46.7150293,
    "styleUrl": "#icon-1899-880E4F",
    "imageUrl": "https://mymaps.usercontent.google.com/hostedimage/m/*/3AL_Y2X6lgMGl-075rLV-qkNfSFYbLhNKj64-o9zolryRuCFlpdqvXGoqF7sMuV5fhePCNN3Y_eQzEtBjy2mP6UwMSynFGUAn0w9SKVWZj3z4_8cDW87y7p322KbmfmE3FadeO_u0xR6UJU-GaOWbXWBk0ZoMQq1np4jxvlt3IIEvoualRTr-dqCtQn2eRwnOHxpkMFIClwviDxOGHrEEzMjYJzmVhlPHUb40MGvZ6YewQ_T7FC442cxgx1-BTOs?authuser=0&fife=s16383"
  },
  {
    "name": "Bancos amarelo verde e vermelho",
    "description": "",
    "lat": -23.5634557,
    "long": -46.7149533,
    "styleUrl": "#icon-1899-880E4F",
    "imageUrl": "https://mymaps.usercontent.google.com/hostedimage/m/*/3AL_Y2X6wcc1pHb3X4kM6bbzyAG7ehf6k6rJSH6hXpelg5Wirs2v58DvO233mBD5i2pHrG7o2BGki1Lf87Jk_k6uB8vCcfhAxNY_QfJurbSXfuXXOBeq7KeHY_xzANwwlrjM3w53v6IQp-NJdNovkumLEJKQEMc0kxZkCbeSN2PtzNaMzPU86aq7hY5Q3jvHzk51vT1bChD4OHCZ31qExuECdDXIQbaNl0m0HgZWJUo0lmNroL-QEJzrPqBlYMmc?authuser=0&fife=s16383"
  },
  {
    "name": "Lixeira que virou floreira atrás da Educação",
    "description": "",
    "lat": -23.5635908,
    "long": -46.715058,
    "styleUrl": "#icon-1899-880E4F",
    "imageUrl": "https://mymaps.usercontent.google.com/hostedimage/m/*/3AL_Y2X567CIxihZuioHASVnth-aBmIgq352vsXGl_M4SW7iW4Q2BT4KPqA_xJUEvxAhh-AeppOOPLvqomy2TUSJ6_SnaM20Ua3ifzU6fcMuO3e_A2WeDi_CzgMJg21aRHQpTWYa4cug4jPqdd0L6BLYCQBnzhi3CfKGxFng6y5TpThjyGvmyKBHPajQg3pgK2MNTBpCLlIpKYxpRwh8lixiVF8YXe-tRQBtDDB5NgbRYNQ4ZvC4EZ0jWPK3osAw?authuser=0&fife=s16383"
  },
  {
    "name": "Totem - AG - Arquivo Geral",
    "description": "1(7^2)1",
    "lat": -23.5691248,
    "long": -46.7330288,
    "styleUrl": "#icon-1899-880E4F",
    "imageUrl": "https://mymaps.usercontent.google.com/hostedimage/m/*/3AL_Y2X6z8Z2BkJFLGrCxJ5CI6Ay13otUDlFtPYIYdTOYFJ5c1lCVLrYvXd4ewZGE53Eqxq-3zYPAf2vqLQC2UE5ozQLw6xsd6hLk4tD0_g84Zt_oAEn2QsnaTr-d_4bEGhXk83FqRKwwdof3DzcvEtHmv0l45Q4z2B8azhmA2JV0q6hgO5xwIx2EmXMICOJbdFw8MDJgms9phFKay0sB-aTcA3aSS9TDEL5UT4BAYR42VuEO5WpTFPAguKyqAIo?authuser=0&fife=s16383"
  },
  {
    "name": "Portão dos fundos - Construção infinita ",
    "description": "",
    "lat": -23.5706899,
    "long": -46.735754,
    "styleUrl": "#icon-1899-880E4F",
    "imageUrl": "https://mymaps.usercontent.google.com/hostedimage/m/*/3AL_Y2X5EQqdO8N6TomuN0yN4vLcwomya3Gj1OBzTVaW8se-r_SDJFRxcoUZA_XFEcXRC-I173nzYaB_0E_RWI9StCcVnrrbh8zlK45pv8vIt4UpZhuC9fi4gb3OD644aU3QbJ0DI4PKjtj5H-ZFN0FipKo4U8q4rkhHP7tPjrMqt-TvhXc0oyZ4bxLYfl5yvnHE2MPMgoJtlVspUyZK99T_XpFFIa29CNiTBg2ADY07UJrPax8DfUDor6vqFpaQ?authuser=0&fife=s16383"
  },
  {
    "name": "A vida é desafio parceiro / prédio sem função social paia",
    "description": "Gaiola também",
    "lat": -23.5712527,
    "long": -46.7367927,
    "styleUrl": "#icon-1899-880E4F",
    "imageUrl": "https://mymaps.usercontent.google.com/hostedimage/m/*/3AL_Y2X55gMMxeJxiD_Jhc8KS39tskKa0puREZD5hpI5iFqRAE7PCQ1lhwBLBPJQhUqqxt11BQzN9z7QFQD0HrhFpvLtG6vLkkcPLolMenffFY0sE4Qm0XuZNAUIWBGXwA-Tvwhp8nb0C-IXM4swjpZpv7QeIZE0gC6lztAcbb_pYAOh072B6JzP93QFVW6QBliqHItff4On516YOyRsrJ0NPec92Nfl4TYKeL_wSnXypFAQszpxf5bMtLqKZ8h8?authuser=0&fife=s16383"
  },